,state,name,lat,lon,type,capacity(MW),production (GWh)
5939,NY,23rd and 3rd,40.6631,-74.0,GAS,94.0,73.738
5940,NY,59th Street,40.771285,-73.99115,GAS,17.1,0.293
5941,NY,74th Street,40.768,-73.9515,OIL,37.0,0.6940000000000001
5942,NY,AG - Energy,44.7258,-75.4417,GAS,99.3,0.0
5943,NY,Al Turi,41.4083,-74.3731,BIOMASS,2.4,9.816
5944,NY,Albany Medical Ctr Cogen Plant,42.656110999999996,-73.776389,GAS,4.6,29.866
5945,NY,Alice Falls Hydro Project,44.519153,-73.464752,HYDRO,2.1,0.10300000000000001
5946,NY,Allegany Station No. 133,42.5027,-78.0686,GAS,67.0,96.844
5947,NY,Allegany Wind Farm,42.036944,-78.534444,WIND,72.5,0.0
5948,NY,Allens Falls,44.660338,-74.860265,HYDRO,4.0,24.76
5949,NY,Arthur Kill,40.591564,-74.200035,GAS,895.5,1098.049
5950,NY,Ashokan,41.949,-74.2063,HYDRO,4.6,7.9239999999999995
5951,NY,Astoria Energy,40.781321000000005,-73.896618,GAS,1242.0,6673.664063
5952,NY,Astoria Gas Turbine Power,40.787,-73.9048,GAS,666.1,54.276
5953,NY,Astoria Generating Station,40.787673999999996,-73.912561,GAS,1345.0,1179.61501
5954,NY,Athens Generating Company,42.2728,-73.8492,GAS,1323.0,2658.65
5955,NY,Auburn LFG Energy Facility,42.944167,-76.5853,BIOMASS,3.3,10.014
5956,NY,Auburn State Street,42.9278,-76.5921,GAS,7.0,0.0
5957,NY,Bassett Medical Center,42.6944,-74.9242,OIL,5.6,0.003
5958,NY,Batavia Energy,42.9828,-78.1592,GAS,67.3,10.79
5959,NY,Bayswater Peaking Facility,40.610654,-73.762218,GAS,60.5,200.104
5960,NY,Beardslee,43.019113,-74.741349,HYDRO,20.0,51.391000000000005
5961,NY,"Beaver Falls, LLC",43.8861,-75.4342,GAS,107.8,1.151
5962,NY,Beebee Island Hydro Plant,43.9767,-75.9072,HYDRO,9.0,43.841
5963,NY,Belfort,43.9275,-75.3331,HYDRO,2.0,12.193
5964,NY,Bennetts Bridge,43.5317,-75.9531,HYDRO,36.0,103.936
5965,NY,Bethlehem Energy Center (Albany),42.594196000000004,-73.763752,GAS,1293.1,4286.736
5966,NY,Bethpage Energy Center,40.7469,-73.4994,GAS,240.0,557.396
5967,NY,Binghamton Cogen Plant,42.107192,-75.927782,GAS,47.7,0.024
5968,NY,Black Oak Wind Farm,42.40222,-76.6704,WIND,16.1,0.0
5969,NY,Black River,44.000122,-75.813151,HYDRO,6.0,33.815
5970,NY,"Black River Generation, LLC",44.03647,-75.77204,BIOMASS,55.5,301.609003
5971,NY,Black River Hydro Associates,43.591246000000005,-75.344207,HYDRO,5.7,14.882
5972,NY,Blake,44.506474,-74.753442,HYDRO,15.0,58.115
5973,NY,Blenheim Gilboa,42.4423,-74.4479,HYDRO,1000.0,-176.02
5974,NY,Bowline Generating Station,41.2044,-73.9689,GAS,1992.0,1479.640955
5975,NY,Brentwood,40.7865,-73.2927,GAS,47.0,43.242
5976,NY,Brentwood Solar,40.781389000000004,-73.243889,SOLAR,1.0,1.2990000000000002
5977,NY,Bronx Zoo,40.844114000000005,-73.876888,GAS,3.6,21.813000000000002
5978,NY,Brookfield Power Glen Falls Hydro,43.308505,-73.636584,HYDRO,11.8,58.916000000000004
5979,NY,Brookhaven Facility,40.7783,-72.9156,BIOMASS,6.6,0.0
5980,NY,Brooklyn Navy Yard Cogeneration,40.699357,-73.976392,GAS,322.0,2051.954973
5981,NY,Browns Falls,44.211407,-75.059441,HYDRO,16.0,61.536
5982,NY,Cadyville,44.695,-73.6219,HYDRO,5.5,23.73
5983,NY,Caithness Long Island Energy Center,40.8142,-72.9403,GAS,348.9,2397.688007
5984,NY,Carr Street Generating Station,43.06132,-76.08239,GAS,122.6,97.70700000000001
5985,NY,Carthage Energy,43.9842,-75.6225,GAS,62.9,11.417
5986,NY,Carver Falls,43.6262,-73.3073,HYDRO,1.9,5.303999999999999
5987,NY,Cassadaga  Wind Farm,42.338333,-79.19555600000001,WIND,125.0,0.0
5988,NY,"Castleton Power, LLC",42.5375,-73.7433,GAS,72.0,229.367996
5989,NY,"Cayuga Operating Company, LLC",42.6028,-76.6336,COAL,322.5,916.218003
5990,NY,Cellu Tissue Natural Dam,44.336358000000004,-75.50274,HYDRO,1.0,7.569
5991,NY,Center Falls,43.096677,-73.460172,HYDRO,1.1,2.097
5992,NY,Central Hudson High Falls,41.828814,-74.131877,HYDRO,3.2,0.0
5993,NY,Chaffee Gas Recovery,42.5831,-78.4864,BIOMASS,6.4,47.803000000000004
5994,NY,Charles P Keller,40.6331,-73.6375,GAS,33.8,-0.691
5995,NY,Charles Poletti,40.776389,-73.910833,OIL,883.0,0.0
5996,NY,Chasm,44.7533,-74.2169,HYDRO,3.0,8.019
5997,NY,Chasm Hydro Partnership,44.9318,-74.1125,HYDRO,1.6,5.186
5998,NY,Chateaugay High Falls Hydro,44.909915000000005,-74.085798,HYDRO,1.7,5.906000000000001
5999,NY,Chautauqua LFGTE Facility,42.1989,-79.3186,BIOMASS,9.6,42.422
6000,NY,Clarkson Solar,44.671944,-74.949444,SOLAR,2.0,0.075
6001,NY,Clarkstown Landfill Solar Facility,41.100409,-73.951593,SOLAR,2.0,0.0
6002,NY,Clinton LFGTE Facility,44.6917,-73.5944,BIOMASS,6.4,39.57
6003,NY,Cohalan,40.762465,-73.194441,SOLAR,4.0,5.191
6004,NY,Cohocton Wind Project,42.45,-77.52,WIND,87.5,181.942
6005,NY,Colonie LFGTE Facility,42.8025,-73.7378,BIOMASS,6.4,37.019
6006,NY,Colton,44.5839,-74.9583,HYDRO,36.0,189.93200000000002
6007,NY,Copenhagen Plant,43.899745,-75.660268,HYDRO,3.3,10.485999999999999
6008,NY,Copenhagen Wind Farm,43.913056,-75.698611,WIND,79.9,0.0
6009,NY,Cornell Hydro,42.451921999999996,-76.48509200000001,HYDRO,1.9,2.66
6010,NY,Cornell Snyder Road Solar Array,42.4975,-76.46,SOLAR,1.8,0.33
6011,NY,Cornell University Ithaca Campus,42.4428,-76.4764,GAS,37.5,202.506996
6012,NY,Covanta Babylon Inc,40.7348,-73.3868,BIOMASS,17.0,109.522
6013,NY,Covanta Hempstead,40.7389,-73.5906,BIOMASS,78.6,574.659005
6014,NY,Covanta Niagara,43.0839,-79.0056,BIOMASS,50.0,184.34400000000002
6015,NY,CPV Valley Energy Center,41.4122,-74.4378,GAS,775.0,0.0
6016,NY,Crescent,42.8056,-73.72264,HYDRO,11.6,51.757
6017,NY,Cricket Valley Energy,41.676111,-73.58111099999999,GAS,1170.0,0.0
6018,NY,Curtis Palmer Hydroelectric,43.2469,-73.8281,HYDRO,59.0,320.508
6019,NY,Dahowa Hydro,43.1033,-73.5369,HYDRO,10.5,25.66377
6020,NY,DANC LFGTE Facility,43.82,-75.9175,BIOMASS,6.4,39.374
6021,NY,Danskammer Generating Station,41.571247,-73.974981,GAS,537.4,0.0
6022,NY,Dashville,41.8217,-74.0497,HYDRO,4.8,12.193
6023,NY,Deer Park,40.760833,-73.193889,SOLAR,2.5,3.589
6024,NY,Deferiet,44.0381,-75.6806,HYDRO,12.0,58.87
6025,NY,Dennison,40.763056,-73.323611,SOLAR,2.0,2.545
6026,NY,Dexter Plant,44.003984,-76.04127700000001,HYDRO,4.2,11.748
6027,NY,Diamond Island Plant,43.978626,-75.88610200000001,HYDRO,1.2,6.316
6028,NY,Diana Hydroelectric,44.151944,-75.321725,HYDRO,1.8,7.08
6029,NY,Dolgeville Hydro,43.090635,-74.766961,HYDRO,5.0,15.73
6030,NY,Dutch Hill Wind Project,42.5456,-77.4967,WIND,37.5,78.4
6031,NY,Dutchess Cnty Resource Recovery Facility,41.647,-73.943,BIOMASS,9.2,43.223
6032,NY,E F Barrett,40.616689,-73.64788100000001,GAS,687.2,1518.9739849999999
6033,NY,E J West,43.318906,-73.920785,HYDRO,22.0,67.44
6034,NY,Eagle,43.909714,-75.20083100000001,HYDRO,6.0,38.46
6035,NY,East Hampton Facility,40.961706,-72.210277,OIL,27.3,6.3389999999999995
6036,NY,East Norfolk,44.7989,-74.9856,HYDRO,4.0,24.853
6037,NY,East River,40.7281,-73.9742,GAS,716.2,2753.9910440000003
6038,NY,Ecogen Wind,42.586944,-77.3125,WIND,79.5,0.0
6039,NY,Edgewood Energy,40.7861,-73.2931,GAS,100.0,181.185
6040,NY,Eel Weir,44.638365,-75.49051999999999,HYDRO,2.5,9.506
6041,NY,Effley,43.922831,-75.277923,HYDRO,3.0,18.284000000000002
6042,NY,Elmer,43.927535999999996,-75.288322,HYDRO,2.0,13.309000000000001
6043,NY,Empire Generating Company LLC,42.625239,-73.75002099999999,GAS,653.7,2725.094993
6044,NY,Entenmanns Energy Center,40.7392,-73.2597,GAS,5.2,6.81
6045,NY,Ephratah,43.0092,-74.5372,HYDRO,4.0,13.422
6046,NY,Equus  Power I,40.6439,-73.5683,GAS,120.0,105.539
6047,NY,Far Rockaway,40.610890000000005,-73.76100000000001,GAS,100.0,0.0
6048,NY,Feeder Dam Hydro Plant,43.289874,-73.665834,HYDRO,5.0,26.424
6049,NY,Fenner Wind,42.988989000000004,-75.762536,WIND,30.0,67.944
6050,NY,Finch Paper,43.3084,-73.6376,BIOMASS,29.0,152.936
6051,NY,Fishers Island 1,41.268611,-72.01,OIL,2.5,0.237
6052,NY,Five Falls,44.527491,-74.849177,HYDRO,24.0,97.749
6053,NY,Flat Rock,44.2217,-75.0742,HYDRO,5.0,18.754
6054,NY,Forestport,43.442468,-75.215946,HYDRO,3.4,8.05
6055,NY,Fort Miller Hydroelectric Facility,43.160868,-73.584076,HYDRO,5.0,24.268
6056,NY,Fortistar North Tonawanda Inc,43.0483,-78.8539,GAS,55.3,38.981
6057,NY,Fourth Branch Hydroelectric Facility,42.787575,-73.691676,HYDRO,3.3,16.805999999999997
6058,NY,Franklin (NY),44.4372,-73.9725,HYDRO,2.0,9.136000000000001
6059,NY,Freeport Power Plant No. 2,40.6447,-73.5683,GAS,97.8,52.674
6060,NY,Fulton Hydro,43.32411,-76.418984,HYDRO,1.3,0.0
6061,NY,Fulton LFGTE Facility,43.0142,-74.4739,BIOMASS,3.2,12.395
6062,NY,General Mills Inc,42.870968,-78.87554899999999,GAS,3.8,0.48
6063,NY,Glen Park Hydroelectric Project,44.000608,-75.961156,HYDRO,32.6,154.27
6064,NY,Glenwood,40.827149,-73.647473,OIL,338.0,5.016
6065,NY,Glenwood Hydro,43.2358,-78.3906,HYDRO,1.5,6.272
6066,NY,Glenwood Landing Energy Center,40.8275,-73.6478,GAS,122.0,196.791003
6067,NY,Goodyear Lake Plant,42.502472999999995,-74.98356,HYDRO,1.4,5.662999999999999
6068,NY,Gouldtown,43.612619,-75.339072,HYDRO,2.0,9.86139
6069,NY,Gowanus Generating Station,40.6635,-74.0051,OIL,733.0,10.31
6070,NY,Grahamsville,41.8592,-74.5106,HYDRO,18.0,97.073
6071,NY,Granby,43.323440999999995,-76.42084100000001,HYDRO,10.0,47.34
6072,NY,Greenidge Generation LLC,42.6789,-76.9483,COAL,162.5,0.0
6073,NY,Greenport,41.101110999999996,-72.371944,OIL,10.1,0.011000000000000001
6074,NY,Hailesboro 4 Plant,44.311681,-75.444992,HYDRO,1.4,11.669
6075,NY,Hampshire Paper,44.296544,-75.36645,HYDRO,3.4,18.774
6076,NY,Hannawa,44.6192,-74.9733,HYDRO,8.0,47.045
6077,NY,Hardscrabble Wind Power LLC,43.112221999999996,-74.878888,WIND,74.0,173.68900000000002
6078,NY,Harlem River Yard,40.7991,-73.9156,GAS,94.0,54.448
6079,NY,Harris Lake,43.9719,-74.1861,OIL,1.7,0.0
6080,NY,"Hawkeye Energy Greenport, LLC",41.10603,-72.37615500000001,OIL,54.0,13.38
6081,NY,Hell Gate,40.799,-73.9094,GAS,94.0,45.718
6082,NY,Herkimer,43.033577,-74.983391,HYDRO,2.0,0.0
6083,NY,Herrings,44.0217,-75.6511,HYDRO,5.4,18.085
6084,NY,Heuvelton,44.6172,-75.4042,HYDRO,1.0,4.727
6085,NY,Hewittville Hydroelectric,44.705166999999996,-75.007933,HYDRO,3.0,14.622
6086,NY,High Acres Gas Recovery,43.081666999999996,-77.38166700000001,BIOMASS,9.6,78.275
6087,NY,High Dam,43.4436,-76.4961,HYDRO,11.9,49.806999999999995
6088,NY,High Falls - Croghan NY,43.9247,-75.3731,HYDRO,6.0,35.077
6089,NY,High Falls - Saranac NY,44.6389,-73.7492,HYDRO,15.0,75.82300000000001
6090,NY,High Sheldon Wind Farm,42.7794,-78.4269,WIND,112.0,270.677
6091,NY,Higley,44.5306,-74.9331,HYDRO,12.0,33.444
6092,NY,Hillburn,41.1269,-74.1653,GAS,46.5,0.258
6093,NY,Hilton NY Co Gen Plant,40.7625,-73.979167,GAS,1.8,11.652000000000001
6094,NY,Hofstra University,40.7139,-73.6003,GAS,2.2,13.106
6095,NY,Hollow Dam Power Partnership,44.296453,-75.33614200000001,HYDRO,1.0,3.049
6096,NY,Holtsville Facility,40.817037,-73.066265,OIL,567.0,35.961999999999996
6097,NY,Honeywell Farms,40.6986,-73.8028,GAS,4.4,11.059000000000001
6098,NY,Howard Wind Farm,42.315278,-77.538333,WIND,59.5,133.174
6099,NY,Hudson Avenue,40.7052,-73.9807,OIL,108.9,1.112
6100,NY,Hudson Falls Hydroelectric Project,43.2958,-73.5956,HYDRO,44.0,197.30200000000002
6101,NY,Huntington Resource Recovery Facility,40.8814,-73.2906,BIOMASS,28.0,189.67
6102,NY,Huntley Power,42.97,-78.93,COAL,780.0,1203.980042
6103,NY,HVCC Cogen Plant,42.696944,-73.68,OIL,8.1,13.965
6104,NY,Hydraulic Race,43.170947999999996,-78.691551,HYDRO,3.0,9.328
6105,NY,Hyland LFGTE Facility,42.2853,-78.0061,BIOMASS,6.4,31.579
6106,NY,Indeck-Corinth Energy Center,43.25,-73.8125,GAS,147.0,876.699005
6107,NY,Indeck-Olean Energy Center,42.085944,-78.45425,GAS,90.6,332.762002
6108,NY,Indeck-Oswego Energy Center,43.471745,-76.49347399999999,GAS,57.4,65.294
6109,NY,Indeck-Silver Springs Energy Center,42.6544,-78.0772,GAS,56.6,37.226659999999995
6110,NY,Indeck-Yerkes Energy Center,42.9671,-78.9182,GAS,59.9,67.54899999999999
6111,NY,Independence,43.495,-76.4511,GAS,1086.1,5996.3635
6112,NY,Indian Point 2,41.270556,-73.9527,NUCLEAR,1299.0,8330.556
6113,NY,Indian Point 3,41.2706,-73.9526,NUCLEAR,1012.0,8977.699
6114,NY,Inghams,43.061017,-74.764347,HYDRO,6.0,28.366
6115,NY,Jamaica Bay Peaking,40.6097,-73.7622,OIL,60.5,21.433000000000003
6116,NY,James A Fitzpatrick,43.521390000000004,-76.408394,NUCLEAR,882.0,5828.694
6117,NY,Jarvis (Hinckley),43.3121,-75.109,HYDRO,9.0,26.453000000000003
6118,NY,Jericho Rise Wind Farm LLC,44.888889,-74.10333299999999,WIND,77.7,0.0
6119,NY,Johnsonville Dam,42.920374,-73.508886,HYDRO,4.0,10.071
6120,NY,Jordanville Wind Farm,43.5,-75.0,WIND,80.0,0.0
6121,NY,Kamargo,44.0117,-75.7967,HYDRO,6.0,22.726
6122,NY,Kensico,41.0851,-73.7748,HYDRO,3.0,0.0
6123,NY,Kent Falls,44.7053,-73.5967,HYDRO,12.4,54.931999999999995
6124,NY,Keuka,42.494167,-77.119444,HYDRO,2.0,0.0
6125,NY,KIAC Cogeneration,40.6417,-73.7778,GAS,171.2,734.159003
6126,NY,Kings Falls Hydroelectric,43.917266999999995,-75.633822,HYDRO,1.6,0.0
6127,NY,Kings Park Solar I,40.868294,-73.24928100000001,SOLAR,2.0,0.0
6128,NY,Kings Park Solar II,40.868294,-73.24928100000001,SOLAR,2.0,0.0
6129,NY,Kosterville,43.614218,-75.332705,HYDRO,1.0,3.23334
6130,NY,Lachute Hydro Lower,43.849028999999994,-73.420701,HYDRO,3.8,15.559000000000001
6131,NY,Lachute Hydro Upper,43.843869,-73.431207,HYDRO,5.2,15.599
6132,NY,Leavenworth Greenworks LLC,40.925278000000006,-72.76333299999999,SOLAR,9.5,0.0
6133,NY,Lederle Laboratories,41.0772,-74.0181,GAS,23.4,127.90031599999999
6134,NY,Lewiston Niagara,43.1428,-79.0215,HYDRO,240.0,-315.31
6135,NY,Lighthouse Hill,43.524103000000004,-75.970318,HYDRO,8.0,25.404
6136,NY,Little Falls Hydro,43.040335,-74.85062099999999,HYDRO,13.0,56.298
6137,NY,Lockport,43.161947,-78.74497099999999,GAS,221.3,388.4037
6138,NY,Long Island Solar Farm LLC,40.861111,-72.84777700000001,SOLAR,31.5,50.821999999999996
6139,NY,Longfalls Facility,43.980806,-75.624677,HYDRO,3.3,5.1579999999999995
6140,NY,Lovett,41.257778,-73.979722,0,449.1,0.0
6141,NY,Lower Beaver Falls Project,43.884444,-75.43055600000001,HYDRO,1.0,5.7139999999999995
6142,NY,Lower Saranac Hydroelectric Facility,44.6694,-73.5075,HYDRO,6.7,25.613000000000003
6143,NY,Lutheran Medical Center,40.6467,-74.0211,GAS,1.6,11.382
6144,NY,Lyons Falls Hydroelectric,43.618629999999996,-75.358577,HYDRO,5.5,27.617040000000003
6145,NY,Lyonsdale Associates,43.618874,-75.30546,HYDRO,3.0,11.147
6146,NY,MacArthur Waste to Energy Facility,40.7869,-73.1064,BIOMASS,12.5,51.176
6147,NY,Macomb,44.877326000000004,-74.306288,HYDRO,1.0,4.439
6148,NY,Madison Windpower LLC,42.894721999999994,-75.451666,WIND,11.5,20.9
6149,NY,Maple Ridge Wind Farm,43.7853,-75.5753,WIND,322.0,813.135
6150,NY,Marble River Wind Farm,44.975833,-73.929722,WIND,215.0,526.727
6151,NY,Marsh Hill Wind Farm,42.163889000000005,-77.528889,WIND,16.2,10.154
6152,NY,Massena Energy Facility,44.9503,-74.8928,GAS,104.1,1.682
6153,NY,Mercy Medical Center,40.688333,-73.630833,OIL,3.0,0.001
6154,NY,Middle Falls Hydro,43.098711,-73.52527099999999,HYDRO,2.2,13.161
6155,NY,Mill C,44.6967,-73.6122,HYDRO,6.0,25.535
6156,NY,Millbrook School,41.84581,-73.619485,SOLAR,1.4,0.0
6157,NY,Minetto,43.4003,-76.4739,HYDRO,10.0,38.312
6158,NY,MM Albany Energy,42.6975,-73.8514,BIOMASS,5.9,24.301
6159,NY,Model City Energy Facility,43.2094,-78.9836,BIOMASS,5.6,39.451
6160,NY,Modern Innovative Energy LLC,43.2094,-78.9836,BIOMASS,12.8,31.533
6161,NY,Mongaup,41.537721999999995,-74.771383,HYDRO,4.0,9.372
6162,NY,Monroe Community College Plant,43.103889,-77.61027800000001,GAS,6.4,12.7841
6163,NY,Monroe Livingston Gas Recovery,42.9903,-77.8011,BIOMASS,2.4,8.613
6164,NY,Montauk,41.0425,-71.957778,OIL,6.0,0.0
6165,NY,Montefieor Medical Center Moses Division,40.881389,-73.880278,GAS,8.3,52.155
6166,NY,Moose River,43.610664,-75.341325,HYDRO,12.6,42.757
6167,NY,Moshier,43.8719,-75.1364,HYDRO,8.0,47.455
6168,NY,Mt Ida Hydroelectric,42.721326,-73.68060799999999,HYDRO,3.0,9.0
6169,NY,Munnsville Wind Farm LLC,42.9086,-75.5697,WIND,34.5,96.45
6170,NY,Nanticoke LFG,42.243704,-75.98253299999999,BIOMASS,4.0,29.866
6171,NY,Narrows Generating Station,40.648610999999995,-74.020833,GAS,352.0,25.19
6172,NY,Nassau Energy Corporation,40.7264,-73.5892,GAS,55.0,343.145261
6173,NY,Neversink,41.8194,-74.6358,HYDRO,25.0,41.32899999999999
6174,NY,New York Methodist Hospital,40.6681,-73.9822,GAS,1.8,6.581
6175,NY,New York State Dam Hydro,42.781779,-73.696096,HYDRO,11.4,53.131
6176,NY,New York University Central Plant,40.7899,-73.9233,GAS,19.0,95.26799999999999
6177,NY,Newport Hydro,43.1853,-75.0169,HYDRO,1.7,7.324
6178,NY,"Niagara Generation, LLC",43.0804,-79.0082,BIOMASS,56.0,88.447
6179,NY,Nine Mile Point Nuclear Station,43.5211,-76.41,NUCLEAR,1901.1,15239.18
6180,NY,Nissequogue Energy Center,40.916833000000004,-73.129056,GAS,47.0,283.32799700000004
6181,NY,Noble Altona Windpark LLC,44.8216,-73.6509,WIND,97.5,186.42
6182,NY,Noble Bellmont Windpark LLC,44.890833,-73.985833,WIND,21.0,0.0
6183,NY,Noble Bliss Windpark LLC,42.5367,-78.3047,WIND,100.5,206.554
6184,NY,Noble Chateaugay Windpark LLC,44.8917,-74.0299,WIND,106.5,200.475
6185,NY,Noble Clinton Windpark LLC,44.8914,-74.0061,WIND,100.5,186.202
6186,NY,Noble Ellenburg Windpark LLC,44.8914,-74.0061,WIND,81.0,176.555
6187,NY,Noble Wethersfield Windpark LLC,42.6697,-78.2278,WIND,126.0,267.81
6188,NY,Norfolk,44.8053,-74.9975,HYDRO,5.0,28.155
6189,NY,Normanskill Hydro Project,42.712356,-73.957324,HYDRO,1.2,3.265
6190,NY,North 1st,40.7171,-73.9664,GAS,47.0,40.021
6191,NY,North County,40.763056,-73.323611,SOLAR,1.0,1.3030000000000002
6192,NY,Northport,40.923565,-73.342323,OIL,1564.0,2681.39095
6193,NY,Norwood,44.7439,-75.0042,HYDRO,2.0,13.555
6194,NY,NRG Dunkirk Power,42.491467,-79.346631,COAL,627.2,368.484003
6195,NY,OBP Cogen,40.754865,-73.983248,GAS,4.6,33.795
6196,NY,Oceanside Energy,40.6369,-73.6383,BIOMASS,4.2,1.946
6197,NY,Ogdensburg,44.704089,-75.487049,HYDRO,3.5,10.003
6198,NY,Oneida Herkimer,43.462222,-75.41833299999999,BIOMASS,3.2,25.114
6199,NY,Onondaga County Resource Recovery,43.0047,-76.1149,BIOMASS,39.5,187.296
6200,NY,Onondaga Energy Partners LP,43.0403,-76.2844,BIOMASS,0.7,0.0
6201,NY,Ontario LFGTE,42.8586,-77.0872,BIOMASS,11.2,75.682
6202,NY,Oswegatchie,44.27,-75.199167,HYDRO,1.8,8.163
6203,NY,Oswego County Energy Recovery,43.348808,-76.425169,BIOMASS,3.6,10.716560000000001
6204,NY,Oswego Falls East,43.3161,-76.4153,HYDRO,6.0,23.15
6205,NY,Oswego Falls West,43.3156,-76.4172,HYDRO,4.0,10.935
6206,NY,Oswego Harbor Power,43.4586,-76.5319,OIL,1895.6,83.889
6207,NY,Owens Corning at Bethlehem,42.586944,-73.865,SOLAR,2.7,3.306
6208,NY,Oyster Bay Energy Partners LP,40.768333,-73.456666,BIOMASS,1.4,0.0
6209,NY,Parishville,44.63,-74.8258,HYDRO,3.0,14.052
6210,NY,Peak Power 1 Cogen,40.751111,-73.991667,GAS,6.3,11.815999999999999
6211,NY,Philadlephia,44.158611,-75.70877800000001,HYDRO,3.6,8.325
6212,NY,Phoenix Hydro Project,43.227058,-76.302137,HYDRO,3.2,11.575
6213,NY,Piercefield,44.233419,-74.56621700000001,HYDRO,2.7,15.767999999999999
6214,NY,Pinelawn Power,40.736610999999996,-73.388424,GAS,82.0,134.961004
6215,NY,Plant No 1 Freeport,40.6561,-73.5922,OIL,13.2,0.24100000000000002
6216,NY,Poletti 500 MW CC,40.7889,-73.9069,GAS,528.0,3307.582007
6217,NY,Port Jefferson Energy Center,40.949696,-73.078507,OIL,590.0,458.535996
6218,NY,Port Leyden Hydroelectric Project,43.583611,-75.339167,HYDRO,1.0,5.018
6219,NY,Port Richmond WWT Solar,40.638056,-74.126111,SOLAR,1.0,0.0
6220,NY,Pouch Terminal,40.6182,-74.06849,GAS,47.0,43.407
6221,NY,Prospect,43.291861,-75.147734,HYDRO,19.0,77.875
6222,NY,Pyrites Plant,44.522043,-75.188108,HYDRO,8.2,29.173000000000002
6223,NY,R E Ginna Nuclear Power Plant,43.2777,-77.3099,NUCLEAR,614.0,4662.495
6224,NY,Rainbow Falls Auscble,44.5236,-73.4617,HYDRO,2.6,0.0
6225,NY,Rainbow Falls Hydro,44.5178,-74.8228,HYDRO,25.0,99.414
6226,NY,Ravenswood Generating Station,40.759167,-73.946111,GAS,2625.0,4770.427070000001
6227,NY,Raymondville,44.835,-74.9803,HYDRO,2.0,13.089
6228,NY,"RED-Rochester, LLC-Eastman Business Park",43.1989,-77.6319,COAL,209.8,351.767005
6229,NY,ReEnergy Biomass LLC,43.617965000000005,-75.30544300000001,BIOMASS,21.1,146.47899999999998
6230,NY,ReEnergy Chateaugay Power Station,44.8927,-74.0746,BIOMASS,19.7,0.0
6231,NY,Rensselaer Cogen,42.625325,-73.749955,GAS,88.2,48.028
6232,NY,Richard M Flynn (Holtsville),40.8158,-73.064,GAS,164.0,1207.777006
6233,NY,Rio,41.4625,-74.7578,HYDRO,10.8,22.438000000000002
6234,NY,Ripley Westfield Wind LLC,42.241111,-79.635,WIND,75.0,0.0
6235,NY,Riverbay Corp. - Co-Op City,40.869972,-73.824437,GAS,49.5,141.90037
6236,NY,Riverhead,40.826111,-73.232222,SOLAR,1.5,1.946
6237,NY,Robert Moses Niagara,43.1427,-79.0394,HYDRO,2429.1,13683.252
6238,NY,Robert Moses Power Dam,45.0038,-74.7994,HYDRO,912.0,7052.696
6239,NY,Rochester 2,43.1611,-77.615,HYDRO,8.5,36.535
6240,NY,Rochester 26,43.1522,-77.6098,HYDRO,3.0,0.823
6241,NY,Rochester 3,43.161667,-77.618055,OIL,19.0,0.0
6242,NY,Rochester 5,43.1803,-77.6278,HYDRO,43.6,91.242
6243,NY,Rochester 7,43.268889,-77.62944399999999,COAL,252.6,0.0
6244,NY,Rochester 9,43.151,-77.6601,GAS,19.0,0.0
6245,NY,Roseton Generating LLC,41.573783,-73.966269,OIL,1242.0,375.152
6246,NY,S A Carlson,42.0933,-79.2478,GAS,96.3,232.801
6247,NY,"Saranac Power Partners, LP",44.7132,-73.4557,GAS,285.6,224.63099999999997
6248,NY,Schaghticoke,42.8992,-73.5989,HYDRO,16.0,57.427
6249,NY,School Street,42.78498,-73.707983,HYDRO,42.0,168.338
6250,NY,Schuylerville,43.096823,-73.582107,HYDRO,2.0,7.311
6251,NY,Selkirk Cogen Partners,42.5744,-73.8592,GAS,446.0,1201.938
6252,NY,Seneca Energy,42.9281,-76.8408,BIOMASS,24.0,141.805
6253,NY,Sewalls,43.9775,-75.8942,HYDRO,2.0,11.139000000000001
6254,NY,Sherman Island,43.2797,-73.7094,HYDRO,36.3,174.579
6255,NY,Shoemaker,41.4278,-74.4186,GAS,41.9,0.397
6256,NY,Shoreham,40.96159,-72.864976,OIL,71.5,0.633
6257,NY,Shoreham Energy,40.957053,-72.865877,OIL,100.0,12.565999999999999
6258,NY,Sissonville Hydro,44.685589,-75.002868,HYDRO,3.0,14.536
6259,NY,Smithtown Energy Partners LP,40.884167,-73.243611,BIOMASS,1.4,0.0
6260,NY,Soft Maple,43.9206,-75.2433,HYDRO,16.0,45.733000000000004
6261,NY,Somerset Operating Company  (Kintigh),43.358889000000005,-78.604722,COAL,655.1,1786.614034
6262,NY,South Cairo,42.291275,-73.986452,OIL,21.6,0.09699999999999999
6263,NY,South Colton,44.5133,-74.8831,HYDRO,21.0,82.34
6264,NY,South Edwards,44.2678,-75.1961,HYDRO,4.0,18.863
6265,NY,South Glens Falls Hydroelectric,43.304413000000004,-73.63993,HYDRO,13.8,73.185
6266,NY,South Hampton,40.899997,-72.381977,OIL,11.5,0.022000000000000002
6267,NY,South Oaks Hospital,40.6853,-73.4258,GAS,2.2,0.361
6268,NY,Southold,41.1059,-72.3761,OIL,14.0,0.151
6269,NY,Spier Falls,43.2339,-73.7556,HYDRO,56.0,223.236
6270,NY,SREC Bath LFGTE,42.325,-77.378889,BIOMASS,3.2,22.256999999999998
6271,NY,Stark,44.4553,-74.7614,HYDRO,26.0,91.56700000000001
6272,NY,Starrett City Cogen Facility,40.6492,-73.8792,GAS,18.0,70.615
6273,NY,Steel Sun,42.812810999999996,-78.845313,SOLAR,5.7,0.0
6274,NY,Steel Winds II,42.8072,-78.8617,WIND,15.0,39.527
6275,NY,Steel Winds Wind Farm,42.8167,-78.8675,WIND,20.0,46.824
6276,NY,Stephentown Spindle,42.556501000000004,-73.377477,OTHF,20.0,0.0
6277,NY,Sterling Power Plant,43.080338,-75.60096300000001,GAS,65.3,22.483
6278,NY,Sterlington Greenworks LLC,41.0675,-72.440278,SOLAR,1.3,0.0
6279,NY,Stewarts Bridge,43.2978,-73.8853,HYDRO,38.5,133.254
6280,NY,Stillwater Hydro Electric Project,42.937465,-73.654393,HYDRO,3.4,14.372
6281,NY,Stillwater Reservoir Hydro,43.897386,-75.04,HYDRO,1.8,7.537000000000001
6282,NY,Stony Creek Wind Farm NY,42.750278,-78.248889,WIND,94.4,272.97900000000004
6283,NY,Sturgeon,41.848191,-74.046678,HYDRO,14.4,27.549
6284,NY,Stuyvesant Falls,42.351389000000005,-73.733889,HYDRO,6.0,12.292
6285,NY,Sugar Island,44.642181,-74.976473,HYDRO,4.0,27.029
6286,NY,SUNY Old Westbury College,40.788889000000005,-73.565,GAS,1.8,10.485
6287,NY,Sutter Greeworks LLC,40.928056,-72.771111,SOLAR,5.0,0.0
6288,NY,Swinging Bridge 1,41.571667,-74.782777,HYDRO,5.0,0.0
6289,NY,Swinging Bridge 2,41.5717,-74.7828,HYDRO,6.8,9.047
6290,NY,Synergy Biogas,42.828889000000004,-78.055,BIOMASS,1.4,7.608
6291,NY,"Syracuse, LLC",43.0664,-76.2144,GAS,102.7,43.288000000000004
6292,NY,Talcville,44.3083,-75.3083,HYDRO,1.1,3.389
6293,NY,Tannery Island Power,43.98,-75.6131,HYDRO,1.5,7.812
6294,NY,Taylorville,43.927002,-75.321877,HYDRO,4.0,28.791
6295,NY,TBE-Montgomery LLC,41.4885,-74.2262,BIOMASS,21.0,0.0
6296,NY,Theresa Plant,44.217420000000004,-75.79517299999999,HYDRO,1.3,7.4910000000000005
6297,NY,Ticonderoga Mill,43.891436999999996,-73.396998,OIL,42.1,219.439719
6298,NY,Town of Williamson Landfill PV,43.244444,-77.174722,SOLAR,1.2,0.004
6299,NY,Trenton Falls,43.2758,-75.1567,HYDRO,21.9,153.22899999999998
6300,NY,Union Falls,44.510739,-73.91307900000001,HYDRO,2.6,13.2957
6301,NY,Unionville Hydro Project 2499 NY,44.714518,-74.996581,HYDRO,3.0,14.579
6302,NY,University of Rochester,43.123889,-77.628889,GAS,25.4,38.6836
6303,NY,Upper Beaver Falls Project,43.883611,-75.42805600000001,HYDRO,1.5,10.392999999999999
6304,NY,Upper Mechanicville,42.9126,-73.6805,HYDRO,16.4,85.68799999999999
6305,NY,Upper Newton Falls,44.214444,-74.991389,HYDRO,1.5,5.4510000000000005
6306,NY,US Gypsum Oakfield,43.0647,-78.2972,GAS,5.8,16.18862
6307,NY,Valley Falls Hydroelectric Facility,42.9044,-73.5625,HYDRO,2.5,8.177
6308,NY,Varick,43.4486,-76.5056,HYDRO,8.0,28.483
6309,NY,Vernon Boulevard,40.7537,-73.9508,GAS,94.0,48.93
6310,NY,Victory Mills,42.9197,-76.5477,HYDRO,1.7,5.692
6311,NY,Vischer Ferry,42.80746,-73.84269,HYDRO,11.6,50.34
6312,NY,Wading River Facility,40.956932,-72.877411,OIL,238.5,30.715
6313,NY,Walden,41.559979999999996,-74.195154,HYDRO,2.4,2.9560000000000004
6314,NY,Wappinger Falls Hydroelectric,41.598395000000004,-73.922036,HYDRO,2.0,8.398
6315,NY,Warrensburg Hydroelectric,43.4833,-73.7986,HYDRO,2.9,11.83
6316,NY,Waste Management Madison County LFGTE,43.0336,-75.7028,BIOMASS,1.6,6.2010000000000005
6317,NY,Watchtower Educational Center,41.4919,-73.5778,OIL,2.1,0.0
6318,NY,Waterport,43.3272,-78.2394,HYDRO,4.0,14.443
6319,NY,Waterside,40.753333000000005,-73.975833,OIL,199.8,0.0
6320,NY,Watertown,43.975801000000004,-75.874669,HYDRO,8.1,25.12
6321,NY,Watkins Glen Wind Energy Center,42.338333,-76.9275,WIND,80.0,0.0
6322,NY,West Babylon Facility,40.695485,-73.348573,OIL,52.4,2.1430000000000002
6323,NY,West Coxsackie,42.3435,-73.8353,OIL,21.6,0.309
6324,NY,West Delaware Tunnel Plant,41.859601,-74.51025899999999,HYDRO,7.5,22.586
6325,NY,West End Dam Hydroelectric Project,43.982890000000005,-75.620583,HYDRO,4.4,24.272
6326,NY,Wethersfield Wind Farm,42.678819,-78.243792,WIND,6.6,9.408999999999999
6327,NY,Wheelabrator Hudson Falls,43.3056,-73.591447,BIOMASS,14.4,75.34899999999999
6328,NY,Wheelabrator Westchester,41.277128999999995,-73.94234399999999,BIOMASS,59.7,388.70001
6329,NY,William Floyd School District,40.776944,-72.850833,GAS,3.9,1.609
6330,NY,Wiscoy 170,42.5042,-78.0828,HYDRO,1.0,0.0
6331,NY,Yaleville,44.7661,-74.9997,HYDRO,2.0,3.0869999999999997
6332,NY,Zotos International WPGF,42.886944,-76.968333,WIND,3.4,2.46015
