,name,lat,lon,type2,type,power_kW,duration,status,usecase,city,state
0,PG&E Advanced Underground Compressed Air Energy Storage (CAES),37.9175935,-121.1710389,Compressed Air Storage,Electro-mechanical,300000,10,Announced,Electric Energy Time Shift,San Joaquin County,CA
1,Next Gen CAES using Steel Piping - NYPA,40.7282239,-73.7948516,Compressed Air Storage,Electro-mechanical,9000,4.5,Announced,Black Start,Queens,NY
2,Lake Elsinore Advanced Pumped Storage,33.668077200000006,-117.3272615,Closed-loop Pumped Hydro Storage,Pumped Hydro Storage,500000,12,Announced,Frequency Regulation,Lake Elsinore,CA
3,NYSEG Seneca/Watkins Glen CAES Project,42.415934,-76.89683199999999,Compressed Air Storage,Electro-mechanical,0,n/a,Announced,Frequency Regulation,Reading,NY
4,Con Edison/Eos Energy Storage Distributed Energy Storage Pilot,40.7143528,-74.00597309999999,Metal Air Battery,Electro-chemical,1000,6,Announced,Stationary Transmission/Distribution Upgrade Deferral,New York,NY
5,Apex Bethel Energy Center,31.8354447,-95.83885040000001,Compressed Air Storage,Electro-mechanical,317000,96,Announced,Black Start,Tennessee Colony,TX
6,Eldorado Pumped Storage,36.079561299999995,-115.094045,Closed-loop Pumped Hydro Storage,Pumped Hydro Storage,1000000,10.33,Announced,Electric Supply Capacity,Clark County,NV
7,Prineville Pumped Storage,44.0978126,-120.09636540000001,Open-loop Pumped Hydro Storage,Pumped Hydro Storage,150000,8.2,Announced,Electric Supply Capacity,Crook County,OR
8,Advanced Rail Energy Storage Nevada ,36.2082943,-115.98391470000001,Gravitational Storage,Electro-mechanical,50000,0.25,Announced,Electric Supply Reserve Capacity - Spinning,Pahrump,NV
9,SolarCity / Tesla / Princeton Power Grid Services Project (Fremont Site 1),37.548269700000006,-121.98857190000001,Lithium-ion Battery,Electro-chemical,200,1,Announced,Electric Bill Management,Fremont,CA
10,SolarCity / Tesla / Princeton Power EV Charging Station (Fremont Site 2),37.548269700000006,-121.98857190000001,Lithium-ion Battery,Electro-chemical,30,1,Announced,Electric Bill Management,Fremont,CA
11,Silver Creek Pumped Storage Project,40.7564536,-76.1283713,Closed-loop Pumped Hydro Storage,Pumped Hydro Storage,300000,8,Announced,Renewables Energy Time Shift,Blythe Township,PA
12,Green Charge Networks GreenStation Announced 1,36.8177592,-119.8084436,Lithium-ion Battery,Electro-chemical,120,1,Announced,Electric Bill Management,Fresno,CA
13,Green Charge Networks GreenStation Announced 2,36.7213819,-119.80596270000001,Lithium-ion Battery,Electro-chemical,60,1,Announced,Electric Bill Management,Fresno,CA
14,Green Charge Networks GreenStation Announced 3,36.7670924,-119.8041469,Lithium-ion Battery,Electro-chemical,60,1,Announced,Electric Bill Management,Fresno,CA
15,Green Charge Networks GreenStation Announced 4,36.817819899999996,-119.7721898,Lithium-ion Battery,Electro-chemical,60,1,Announced,Electric Bill Management,Fresno,CA
16,Green Charge Networks GreenStation Announced 5,36.803759299999996,-119.86251090000002,Lithium-ion Battery,Electro-chemical,180,1,Announced,Electric Bill Management,Fresno,CA
17,Green Charge Networks GreenStation Announced 6,36.854763,-119.71475600000001,Lithium-ion Battery,Electro-chemical,200,2,Announced,Electric Bill Management,Clovis,CA
18,Green Charge Networks GreenStation Announced 7,36.823935600000006,-119.6977203,Lithium-ion Battery,Electro-chemical,60,1,Announced,Electric Bill Management,Clovis,CA
19,Green Charge Networks GreenStation Announced 8,36.7995122,-119.64246299999999,Lithium-ion Battery,Electro-chemical,60,1,Announced,Electric Bill Management,Clovis,CA
20,Green Charge Networks GreenStation Announced 9,36.81711,-119.68162099999999,Lithium-ion Battery,Electro-chemical,200,2,Announced,Electric Bill Management,Clovis,CA
21,Green Charge Networks GreenStation Announced 10,36.8901155,-119.73667479999999,Lithium-ion Battery,Electro-chemical,200,2,Announced,Electric Bill Management,Fresno,CA
22,Green Charge Networks GreenStation Announced 11,36.862975899999995,-119.76563349999999,Lithium-ion Battery,Electro-chemical,60,1,Announced,Electric Bill Management,Fresno,CA
23,Green Charge Networks GreenStation Announced 13,37.72485,-122.398679,Lithium-ion Battery,Electro-chemical,1000,2,Announced,Electric Bill Management,San Francisco,CA
24,Green Charge Networks GreenStation Announced 14,33.9751217,-118.0346006,Lithium-ion Battery,Electro-chemical,60,2,Announced,Electric Bill Management,Whittier,CA
25,Green Charge Networks GreenStation Announced 15,34.2773843,-119.2306844,Lithium-ion Battery,Electro-chemical,200,2,Announced,Electric Bill Management,Ventura,CA
26,Green Charge Networks GreenStation Announced 16,34.1631687,-119.15913300000001,Lithium-ion Battery,Electro-chemical,200,2,Announced,Electric Bill Management,Oxnard,CA
27,Green Charge Networks GreenStation Announced 17,34.285558,-118.8820414,Lithium-ion Battery,Electro-chemical,400,2,Announced,Electric Bill Management,Moorpark,CA
28,Green Charge Networks GreenStation Announced 18,32.715637199999996,-117.16926480000001,Lithium-ion Battery,Electro-chemical,90,2,Announced,Electric Bill Management,San Diego,CA
29,Green Charge Networks GreenStation Announced 19,32.753413,-117.129548,Lithium-ion Battery,Electro-chemical,60,2,Announced,Electric Bill Management,San Diego,CA
30,Green Charge Networks GreenStation Announced 20,33.020912,-117.072525,Lithium-ion Battery,Electro-chemical,60,2,Announced,Electric Bill Management,San Diego,CA
31,Green Charge Networks GreenStation Announced 21,32.80726,-117.1165767,Lithium-ion Battery,Electro-chemical,60,2,Announced,Electric Bill Management,San Diego,CA
32,Green Charge Networks GreenStation Announced 22,33.9765093,-117.5575915,Lithium-ion Battery,Electro-chemical,30,2,Announced,Electric Bill Management,Mira Loma,CA
33,Green Charge Networks GreenStation Announced 23,34.188353,-119.222103,Lithium-ion Battery,Electro-chemical,30,2,Announced,Electric Bill Management,Oxnard,CA
34,Green Charge Networks GreenStation Announced 24,32.994222,-117.254548,Lithium-ion Battery,Electro-chemical,60,2,Announced,Electric Bill Management,Solana Beach,CA
35,Green Charge Networks GreenStation Announced 25,36.985997600000005,-121.96350259999998,Lithium-ion Battery,Electro-chemical,30,2,Announced,Electric Bill Management,Soquel,CA
36,Green Charge Networks GreenStation Announced 26,34.018956,-118.03351699999999,Lithium-ion Battery,Electro-chemical,200,2,Announced,Electric Bill Management,Whittier,CA
37,Green Charge Networks GreenStation Announced 27,33.7430594,-117.0316,Lithium-ion Battery,Electro-chemical,60,2,Announced,Electric Bill Management,Hemet,CA
38,Green Charge Networks GreenStation Announced 28,34.1296772,-118.0743144,Lithium-ion Battery,Electro-chemical,60,2,Announced,Electric Bill Management,San Gabriel,CA
39,Green Charge Networks GreenStation Announced 29,33.673302899999996,-117.956291,Lithium-ion Battery,Electro-chemical,90,2,Announced,Electric Bill Management,Huntington Beach,CA
40,Green Charge Networks GreenStation Announced 30,34.0858748,-117.2595152,Lithium-ion Battery,Electro-chemical,400,2,Announced,Electric Bill Management,San Bernardino,CA
41,Green Charge Networks GreenStation Announced 31,37.492297,-122.22445379999999,Lithium-ion Battery,Electro-chemical,90,2,Announced,Electric Bill Management,Redwood City,CA
42,Green Charge Networks GreenStation Announced 33,32.7185482,-117.16948590000001,Lithium-ion Battery,Electro-chemical,30,2,Announced,Electric Bill Management,San Diego,CA
43,Green Charge Networks GreenStation Announced 34,32.829709,-117.13243190000001,Lithium-ion Battery,Electro-chemical,60,2,Announced,Electric Bill Management,San Diego,CA
44,Oncor Battery Storage,32.7766642,-96.7969879,Lithium-ion Battery,Electro-chemical,250,3,Announced,Resiliency,Dallas,TX
45,SolarCity Walmart Solar Storage Projects California,37.562991700000005,-122.32552539999999,Lithium-ion Battery,Electro-chemical,200,2,Announced,Electric Bill Management with Renewables,San Mateo,CA
46,BMCC Urban Electric 100 kW New York,40.7127837,-74.00594129999999,Electro-chemical,Electro-chemical,100,n/a,Announced,Onsite Renewable Generation Shifting,New York City,NY
47,Axion Solar Farm 9.1 MW Coatesville,41.0036719,-80.347009,Lead-acid Battery,Electro-chemical,9000,n/a,Announced,Frequency Regulation,New Castle,PA
48,UCSD SGIP PV Projects,32.8807318,-117.24019990000001,Lithium-ion Battery,Electro-chemical,730,0.5,Announced,Onsite Renewable Generation Shifting,La Jolla,CA
49,Riverside Public Utilities 5 MW Ice Energy Project,33.9533487,-117.3961564,Ice Thermal Storage,Thermal Storage,5000,6,Announced,Electric Energy Time Shift,Riverside,CA
50,Riverside Public Utilities 5 MW Ice Energy Project,33.9533487,-117.3961564,Ice Thermal Storage,Thermal Storage,5000,6,Announced,Electric Energy Time Shift,Riverside,CA
51,Livermore Valley Performing Arts Center 30 kW Imergy Flow Battery,37.680208,-121.79189850000002,Flow Battery,Electro-chemical,30,4,Announced,Electric Bill Management,Livermore Valley,CA
52,Dynapower Company HQ micro-grid,44.442312,-73.153902,Lithium-ion Battery,Electro-chemical,375,0.67,Announced,Microgrid Capability,South Burlington,VT
53,"2 MW Potsdam, New York - Microgrid",44.6697805,-74.9813084,Electro-chemical,Electro-chemical,2000,n/a,Announced,Microgrid Capability,Potsdam,NY
54,Hybrid Compressed Air Energy Storage and Thermal Energy Storage - UCLA - Southern California Edison,34.055103,-117.7499909,Compressed Air Storage,Electro-mechanical,0,n/a,Announced,Electric Energy Time Shift,Pomona,CA
55,"Red Hook (Brooklyn, NY) - NY Prize Microgrid",40.677280200000006,-74.00944709999999,Electro-chemical,Electro-chemical,10000,n/a,Announced,Electric Energy Time Shift,"Red Hook, Brooklyn",NY
56,6 MW / 10 MWh Molokai Island Energy - Phase One,21.1443935,-157.02262969999998,Electro-chemical,Electro-chemical,6000,1.67,Announced,Microgrid Capability,Molokai,HI
57,Long Island Community Microgrid Project - 5 MW / 25 MWh,40.9634335,-72.18480090000001,Electro-chemical,Electro-chemical,5000,5,Announced,Grid-Connected Commercial (Reliability & Quality) ,East Hampton,NY
58,Smart Energy 50 Home Pilot Project - SunSpec / SolarCity,36.778261,-119.4179324,Lithium-ion Battery,Electro-chemical,0,n/a,Announced,Demand Response,SCE Territory,CA
59,Emerald Lake State Park ,43.2808225,-73.0049379,Lithium-ion Battery,Electro-chemical,10,1,Announced,Electric Bill Management,East Dorset,VT
60,"University of the Nations (Kona, Hawaii) - EnSync Energy (formerly ZBB Energy)",19.631841,-155.98636509999997,Electro-chemical,Electro-chemical,0,n/a,Announced,Microgrid Capability,Kailua-Kona,HI
61,Panasonic Enterprise Solutions Facility (Xcel Energy Storage),39.739235799999996,-104.990251,Electro-chemical,Electro-chemical,1000,2,Announced,Electric Bill Management,Denver,CO
62,Stapleton Neighborhood Energy Storage (Xcel Energy),39.778004100000004,-104.91091029999998,Electro-chemical,Electro-chemical,0,n/a,Announced,Grid-Connected Residential (Reliability),Denver,CO
63,500 kW Eugene Water & Electric Board (EWEB),44.0520691,-123.08675359999998,Electro-chemical,Electro-chemical,500,n/a,Announced,Microgrid Capability,Eugene,OR
64,"Sullivan Water Treatment Plant (Cambridge, Massachusetts)",42.382917299999995,-71.14403279999999,Electro-chemical,Electro-chemical,0,n/a,Announced,Microgrid Capability,Cambridge,MA
65,Taunton/Berkley Community Microgrid (MASS DOER Community Resiliency),41.831741799999996,-71.0854325,Lithium-ion Battery,Electro-chemical,1,n/a,Announced,Resiliency,Taunton/Berkley,MA
66,Boston Community Centers (MASS DOER Community Resiliency),42.360082500000004,-71.0588801,Lithium-ion Battery,Electro-chemical,1,n/a,Announced,Resiliency,Boston,MA
67,Northampton Fire Department HQ (MASS DOER Community Resiliency),42.3250896,-72.64120129999999,Lithium-ion Battery,Electro-chemical,1,n/a,Announced,Resiliency,Northampton,MA
68,Medford Resiliency Project (MASS DOER Community Resiliency),42.4184296,-71.10616390000001,Lithium-ion Battery,Electro-chemical,1,n/a,Announced,Resiliency,Medford,MA
69,Northampton Microgrid with Islandable PV (MASS DOER Community Resiliency),42.3250896,-72.64120129999999,Lithium-ion Battery,Electro-chemical,1,n/a,Announced,Resiliency,Northampton,MA
70,Sterling Police and Communication Facility Microgrid (MASS DOER Community Resiliency),42.4374156,-71.76062929999999,Lithium-ion Battery,Electro-chemical,1,n/a,Announced,Resiliency,Sterling,MA
71,Acton Critical Facilties Resiliency (MASS DOER Community Resiliency),42.48509310000001,-71.43284,Lithium-ion Battery,Electro-chemical,1,n/a,Announced,Resiliency,Acton,MA
72,Amherst/Umass Microgrid (MASS DOER Community Resiliency),42.394206200000006,-72.53351540000001,Lithium-ion Battery,Electro-chemical,1,n/a,Announced,Resiliency,Amherst/Umass,MA
73,Madison Park High School Shelter - Boston (MASS DOER Community Resiliency),42.360082500000004,-71.0588801,Lithium-ion Battery,Electro-chemical,1,n/a,Announced,Resiliency,Boston,MA
74,Cambridge Rindge and Latin School (MASS DOER Community Resiliency),42.3744083,-71.1106136,Lithium-ion Battery,Electro-chemical,1,n/a,Announced,Resiliency,Cambridge,MA
75,Lawrence Water Treatment Plant (MASS DOER Community Resiliency),42.694858399999994,-71.1797614,Lithium-ion Battery,Electro-chemical,1,n/a,Announced,Resiliency,Lawrence,MA
76,Leverett Resiliency Project (MASS DOER Community Resiliency),42.4519581,-72.5011335,Lithium-ion Battery,Electro-chemical,1,n/a,Announced,Resiliency,Leverett,MA
77,Falmouth High School (MASS DOER Community Resiliency),41.5900431,-70.6075906,Lithium-ion Battery,Electro-chemical,1,n/a,Announced,Resiliency,Falmouth,MA
78,Lincoln/Wayland-MAPC TA Project (MASS DOER Community Resiliency),42.4217357,-71.2992993,Lithium-ion Battery,Electro-chemical,1,n/a,Announced,Resiliency,Lincoln/Wayland,MA
79,Melrose Microgrid TA Project (MASS DOER Community Resiliency),42.458429200000005,-71.06616329999999,Lithium-ion Battery,Electro-chemical,1,n/a,Announced,Resiliency,Melrose,MA
80,New Bedford Techincal Assistance Project (MASS DOER Community Resiliency),41.6362152,-70.934205,Lithium-ion Battery,Electro-chemical,1,n/a,Announced,Resiliency,New Bedford,MA
81,Newton Technical Assistance Project (MASS DOER Community Resiliency),42.337041299999996,-71.2092214,Lithium-ion Battery,Electro-chemical,1,n/a,Announced,Resiliency,Newton,MA
82,Sandwich Technical Assistance Project (MASS DOER Community Resiliency),41.7589615,-70.4939317,Lithium-ion Battery,Electro-chemical,1,n/a,Announced,Resiliency,Sandwich,MA
83,Saugus Technical Assistance Project (MASS DOER Community Resiliency),42.4651421,-71.0110473,Lithium-ion Battery,Electro-chemical,1,n/a,Announced,Resiliency,Saugus,MA
84,Scituate Technical Assistance Project (MASS DOER Community Resiliency),42.195929,-70.72586329999999,Lithium-ion Battery,Electro-chemical,1,n/a,Announced,Resiliency,Scituate,MA
85,Shirley Police Station Technical Assistance Project (MASS DOER Community Resiliency),42.5437035,-71.6495176,Lithium-ion Battery,Electro-chemical,1,n/a,Announced,Resiliency,Shirley,MA
86,Somerville Department of Public Works Technical Assistance,42.3875968,-71.0994968,Lithium-ion Battery,Electro-chemical,1,n/a,Announced,Resiliency,Somerville,MA
87,Entergy Solar-Plus-Storage Pilot Project,29.9510658,-90.0715323,Lithium-ion Battery,Electro-chemical,1000,0.5,Announced,Renewables Capacity Firming,New Orleans,LA
88,Comed-Bronzeville-Demo,39.7817213,-89.6501481,Flow Battery,Electro-chemical,1000,2,Announced,Microgrid Capability,Springfield,IL
89,Axion Power International-Sharon-12.5 MW ,41.2331116,-80.4934035,Lead-acid Battery,Electro-chemical,12500,1,Announced,Frequency Regulation,Sharon,PA
90,Escondido School District-Tesla,33.1192068,-117.086421,Lithium-ion Battery,Electro-chemical,150,4.2,Announced,Electric Energy Time Shift,Escondido,CA
91,NYSERDA-EOS Microgrid,41.5964825,-73.91096999999999,Metal Air Battery,Electro-chemical,250,4.3,Announced,Microgrid Capability,Wappingers Falls,NY
92,Deepwater Wind-New York ,41.03593529999999,-71.9545146,Lithium-ion Battery,Electro-chemical,15000,4,Announced,Renewables Capacity Firming,Montauk,NY
93,San Vicente Pumped Storage,35.5069662,-120.6709247,Closed-loop Pumped Hydro,Pumped Hydro Storage,500000,8,Announced,Grid-Connected Commercial (Reliability & Quality) ,San Vicente ,CA
94,Sunvault Energy-Edison Power- Delaware Fire Station,39.158167999999996,-75.5243682,Lithium-ion Battery,Electro-chemical,600,0.5,Announced,Electric Bill Management with Renewables,Dover,DE
95,Schneider Electric-Boston One,42.6583356,-71.1367953,Lithium-ion Battery,Electro-chemical,400,2.5,Announced,Electric Energy Time Shift,Andover,MA
96,Younicos-OCI Solar Power-Austin,29.4241219,-98.4936282,Lithium-ion Battery,Electro-chemical,1000,4,Announced,Renewables Energy Time Shift,San Antonio,TX
97,Anderson Pumped Storage,42.9487655,-115.30162109999999,Closed-loop Pumped Hydro,Pumped Hydro Storage,80000,12,Announced,Electric Supply Capacity, Elmore County,OR
98,Black Canyon Pumped Storage,41.8023171,-107.2398172,Pumped Hydro,Pumped Hydro Storage,1000000,11,Announced,Electric Supply Capacity,Carbon County,NV
99,Rose Creek Pumped Storage,38.434346399999995,-118.4863963,Pumped Hydro,Pumped Hydro Storage,250000,12,Announced,Electric Supply Capacity,Mineral County,NV
100,White Pine Pumped Storage,37.927351,-114.45312,Closed-loop Pumped Hydro,Pumped Hydro Storage,750000,12,Announced,Electric Supply Capacity,Ely County,NV
101,Grossmont Union High School District ,32.7783843,-116.9883606,Electro-chemical,Electro-chemical,1850,4,Announced,Electric Bill Management,Grossmont,CA
102,Queens College-CUNY PV System,40.7127837,-74.00594129999999,Lithium-ion Battery,Electro-chemical,60,4,Announced,Electric Bill Management with Renewables,New York,NY
103,Las Positas College EPIC Microgrid - Imergy / GELI,37.7108595,-121.80047649999999,Vanadium Redox Flow Battery,Electro-chemical,250,4,Announced,Electric Bill Management,Livermore,CA
104,"Lewes BPW / Alevo - 8 MW - (Lewes, Delaware)",38.7745565,-75.1393498,Electro-chemical,Electro-chemical,8000,0.5,Announced,Frequency Regulation,Lewes,DE
105,Beverly Regional Cache Site (MASS DOER Community Resiliency),42.5878335,-70.9045107,Electro-chemical,Electro-chemical,39,2,Announced,Microgrid Capability,Beverly,MA
106,Dennis-Yarmouth High School Regional Shelter (MASS DOER Community Resiliency),41.6775776,-70.1932971,Electro-chemical,Electro-chemical,512,1,Announced,Electric Bill Management,South Yarmouth,MA
107,Greenfield High School (MASS DOER Community Resiliency),42.6065743,-72.5952285,Electro-chemical,Electro-chemical,129,2,Announced,Black Start,Greenfield,MA
108,Holyoke Resiliency Facilities (MASS DOER Community Resiliency),42.2042586,-72.61620090000001,Electro-chemical,Electro-chemical,983,2,Announced,Microgrid Capability,Holyoke,MA
109,Asheville Plant - Duke Energy,35.478165999999995,-82.549154,Electro-chemical,Electro-chemical,5000,n/a,Announced,Demand Response,Arden,NC
110,Seattle City Light Microgrid,47.6062095,-122.33207079999998,Electro-chemical,Electro-chemical,0,n/a,Announced,Electric Energy Time Shift,Seattle,WA
111,Irvine Ranch Water District (IRWD) - AMS,33.6588951,-117.8282121,Electro-chemical,Electro-chemical,7,6.85,Announced,Demand Response,Irvine,CA
112,Nextera Wyman,43.8006208,-70.1867227,Electro-chemical,Electro-chemical,16200,0.5,Announced,Frequency Regulation,yarmouth,ME
113,Eagle Mountain Pumped Storage Project,33.71333129999999,-115.4004287,Closed-loop Pumped Hydro Storage,Pumped Hydro Storage,1300000,n/a,Contracted,Electric Energy Time Shift,Desert Center,CA
114,Ultralife SUNY Canton Wind Integration Demo,44.608012,-75.184657,Lithium-ion Battery,Electro-chemical,500,4,Contracted,Onsite Renewable Generation Shifting,Canton,NY
115,Discovery at Spring Trails Residential Energy Storage,30.120011100000003,-95.37497990000001,Lithium-ion Battery,Electro-chemical,30,14,Contracted,Electric Bill Management,Spring,TX
116,"SDGE C1243 Ortega HWY, GRC ES Program Unit 6",33.5016932,-117.66255090000001,Lithium-ion Battery,Electro-chemical,1000,3,Contracted,Stationary Transmission/Distribution Upgrade Deferral,San Juan Capistrano,CA
117,"SDGE C75 Mt San Miguel, GRC ES Program Unit 7",32.8195577,-116.96154609999999,Lithium-ion Battery,Electro-chemical,1000,3,Contracted,Microgrid Capability,El Cajon,CA
118,Snohomish PUD - MESA 2,47.9789848,-122.2020794,Flow Battery,Electro-chemical,2000,4,Contracted,Electric Energy Time Shift,Everett,WA
119,PSE Storage Innovation Project 2,47.610377,-122.20067859999999,Lithium-ion Battery,Electro-chemical,2000,2.2,Contracted,Electric Energy Time Shift,Bellevue,WA
120,Clean Energy Storage: Berkes,37.931868,-121.6957863,Lithium-ion Battery,Electro-chemical,11,7,Contracted,Onsite Renewable Generation Shifting,Brentwood,CA
121,Clean Energy Storage: Golden Bridge Development,34.39,-117.403056,Lithium-ion Battery,Electro-chemical,5,3,Contracted,Onsite Renewable Generation Shifting,Oak Hills,CA
122,Clean Energy Storage: Dibene,36.988562,-121.80634180000001,Lithium-ion Battery,Electro-chemical,24,8,Contracted,Grid-Connected Residential (Reliability),Corralitos,CA
123,SCE Home Battery Pilot,34.0805651,-118.072846,Lithium-ion Battery,Electro-chemical,80,2.5,Contracted,Demand Response,Rosemead,CA
124,VYCON Lights-Out Data Center,31.968598800000002,-99.9018131,Flywheel,Electro-mechanical,8000,n/a,Contracted,Resiliency,Texas,TX
125,Adobe Baker and Hamilton Building Stem System,37.7717908,-122.40167009999999,Lithium-ion Battery,Electro-chemical,162,1.12,Contracted,Electric Bill Management,San Francisco,CA
126,Terra Verde/SolarCity - Burton School District Energy Storage & PV Project,36.06523,-119.0167679,Lithium-ion Battery,Electro-chemical,360,2,Contracted,Electric Bill Management with Renewables,Porterville,CA
127,AES Alamitos Energy Storage Array,33.770050399999995,-118.1937395,Electro-chemical,Electro-chemical,100000,4,Contracted,Electric Supply Capacity,Long Beach,CA
128,NRG Energy 0.5 MW,33.158093300000004,-117.3505939,Electro-chemical,Electro-chemical,500,4,Contracted,Electric Energy Time Shift,Carlsbad,CA
129,Ice Energy procurement from SCE's November 2014 LCR: 25.6 MW,34.0522342,-118.24368490000002,Ice Thermal Storage,Thermal Storage,25600,6,Contracted,Electric Bill Management,Los Angeles,CA
130,AMS 50 MW Hybrid-Electric Buildings,34.0522342,-118.24368490000002,Electro-chemical,Electro-chemical,50000,n/a,Contracted,Electric Energy Time Shift,Los Angeles,CA
131,Stem 85 MW Western Los Angeles Basin,34.0522342,-118.24368490000002,Electro-chemical,Electro-chemical,85000,n/a,Contracted,Electric Bill Management,Los Angeles,CA
132,Chugach Multi-Stage Energy Storage System (MS-ESS),61.1688233,-149.9106884,Flywheel,Electro-mechanical,320,0.8,Contracted,Frequency Regulation,Anchorage,AK
133,GE and Con Edison 8 MWh,40.6804279,-122.3708419,Lithium-ion Battery,Electro-chemical,2000,4,Contracted,Electric Supply Reserve Capacity - Spinning,Central Valley,CA
134,"8 MWh Con Edison & GE - Central Valley, CA",40.6804279,-122.3708419,Lithium-ion Battery,Electro-chemical,2000,4,Contracted,Renewables Energy Time Shift,Central Valley ,CA
135,Glasgow Electric Plant Board - Sunverge 165 Home Pilot,36.995883899999995,-85.91192149999999,Lithium-ion Battery,Electro-chemical,990,1.92,Contracted,Electric Bill Management,Glasgow,KY
136,Kaua'i Dispatchable Solar Storage - 13 MW / 52MWh  - SolarCity,21.9661076,-159.5737912,Lithium-ion Battery,Electro-chemical,13000,4,Contracted,Electric Energy Time Shift,Kaua'i,HI
137,400 MW Gordon Butte Pumped Hydro,46.457695,-110.3140327,Closed-loop Pumped Hydro Storage,Pumped Hydro Storage,400000,n/a,Contracted,Frequency Regulation,Martinsdale,MT
138,500 kW / 800 kWh - Electrovaya Transportable Energy Storage,40.7127837,-74.00594129999999,Lithium-ion Battery,Electro-chemical,500,1.6,Contracted,On-Site Power,New York,NY
139,1.5 MW - Austin Energy Kingsbury Substation,30.267153000000004,-97.7430608,Lithium-ion Battery,Electro-chemical,1500,n/a,Contracted,Electric Energy Time Shift,Austin,TX
140,EPRI / SunEdison Net-Zero Home Pilot,34.06,-117.44,Lithium-ion Battery,Electro-chemical,0,n/a,Contracted,Electric Bill Management with Renewables,Fontana,CA
141,Inland Empire Utilities Agency (IEUA) - AMS,33.965928999999996,-117.67482,Electro-chemical,Electro-chemical,3500,2,Contracted,Electric Bill Management,Chino,CA
142,20 MW / 80 MWh - Energy Nuevo - Amber Kinetics,36.678393799999995,-119.92779469999999,Flywheel,Electro-mechanical,20000,4,Contracted,Electric Energy Time Shift,Fresno,CA
143,10 MW - PG&E Molino Substation- Hecate Energy,38.4259473,-122.8320595,Electro-chemical,Electro-chemical,10000,2,Contracted,Stationary Transmission/Distribution Upgrade Deferral,Sebastapol,CA
144,Golden Hills - NextEra Energy,37.6818745,-121.7680088,Electro-chemical,Electro-chemical,30000,2,Contracted,Distribution upgrade due to wind,Livermore,CA
145,Kings County Energy Storage - PG&E Henrietta Substation,36.0988489,-119.88152029999999,Zinc Air Battery,Electro-chemical,10000,4,Contracted,Distribution upgrade due to solar,Kings County,CA
146,3 MW - PG&E Clarksville Substation- Western Grid,38.6779591,-121.17605829999998,Zinc Air Battery,Electro-chemical,3000,2,Contracted,Stationary Transmission/Distribution Upgrade Deferral,Folsom,CA
147,1 MW - PG&E Old Kearney Substation - Hecate Energy,36.678393799999995,-119.92779469999999,Electro-chemical,Electro-chemical,1000,2,Contracted,Stationary Transmission/Distribution Upgrade Deferral,Fresno,CA
149,"SDG&E / Hecate Energy Bancroft - (San Diego, CA)",32.715738,-117.1610838,Electro-chemical,Electro-chemical,20000,4,Contracted,Electric Energy Time Shift,San Diego,CA
150,Idaho National Laboratory - ViZn,43.519585,-112.04618400000001,Electro-chemical,Electro-chemical,128,2.5,Contracted,Microgrid Capability,Idaho Falls,ID
151,Tucson Electric Power (TEP) - NextEra,32.2217429,-110.926479,Electro-chemical,Electro-chemical,10000,0.5,Contracted,Demand Response,Tucson,AZ
152,University of Arizona Science and Technology Park  / TEP - E.ON,32.2217429,-110.926479,Electro-chemical,Electro-chemical,10000,0.5,Contracted,Demand Response,Tucson,AZ
153,Connecticut Municipal Electric Energy Cooperative (CMEEC) - SolarCity / Brightfields Development,41.60322070000001,-73.087749,Electro-chemical,Electro-chemical,1500,4,Contracted,Electric Energy Time Shift,,CT
154,California State University Dominguez Hills Campus - AMS,33.8624657,-118.2545425,Electro-chemical,Electro-chemical,750,6,Contracted,Electric Bill Management,Carson,CA
155,SDG&E Escondido Substation - AES,33.1192068,-117.086421,Electro-chemical,Electro-chemical,30000,4,Contracted,Electric Energy Time Shift,Escondido,CA
156,SDG&E El Cajon Substation - AES,32.7947731,-116.96252690000001,Electro-chemical,Electro-chemical,7500,4,Contracted,Electric Energy Time Shift,El Cajon,CA
157,Grand Johanna Aliso Canyon Energy Storage - SCE / Powin,33.691031,-117.833193,Lithium Iron Phosphate Battery,Electro-chemical,2000,4,Contracted,Electric Supply Capacity,Irvine,CA
158,Convergent 35 MW / 140 MWh - SCE,33.7174708,-117.83114280000001,Electro-chemical,Electro-chemical,35000,4,Contracted,Electric Supply Capacity,Orange County,CA
159,Aliso Canyon SCE Mira Loma Substation - Tesla,34.0074494,-117.5609574,Electro-chemical,Electro-chemical,20000,4,Contracted,Electric Supply Capacity,Ontario,CA
160,Modesto Irrigation District - Primus Power,37.6390972,-120.99687820000001,Flow Battery,Electro-chemical,28000,4,Offline/Under Repair,Renewables Capacity Firming,Modesto,CA
161,Thermalito Pumping - Generating Plant,39.513775200000005,-121.55635900000001,Open-loop Pumped Hydro Storage,Pumped Hydro Storage,120000,n/a,Offline/Under Repair,Electric Energy Time Shift,Oroville,CA
162,CALMAC Centex Building,32.780139899999995,-96.80045109999999,Ice Thermal Storage,Thermal Storage,205,6,Offline/Under Repair,Electric Bill Management,Dallas,TX
163,Palmdale Micro Grid Energy Storage Demonstration,34.5794343,-118.11646129999998,Electro-chemical Capacitor,Electro-chemical,450,n/a,Offline/Under Repair,Electric Energy Time Shift,Palmdale,CA
165,"Beacon Power - (Stephentown, NY) ",42.5539158,-73.3944466,Flywheel,Electro-mechanical,20000,0.25,Operational,Frequency Regulation,Stephentown,NY
166,Gills Onions - Prudent Energy VRB-ESS,34.1908099,-119.16487749999999,Flow Battery,Electro-chemical,600,6,Operational,Electric Bill Management,Oxnard,CA
167,Bath County Pumped Storage Station - Dominion Generation / First Energy,38.198392,-79.80998509999999,Open-loop Pumped Hydro Storage,Pumped Hydro Storage,3003000,10.3,Operational,Electric Energy Time Shift,"George Washington National Forest, Warm Springs",VA
168,Kaheawa Wind Project - Younicos,20.7983626,-156.3319253,Lead-acid Battery,Electro-chemical,1500,0.25,Operational,Ramping ,Maui,HI
169,Tehachapi Wind Energy Storage Project - Southern California Edison,35.036143,-118.28065900000001,Lithium-ion Battery,Electro-chemical,8000,4,Operational,Electric Supply Capacity,Tehachapi,CA
170,Notrees Battery Storage Project - Duke Energy,31.9819386,-102.6147715,Lead-acid Battery,Electro-chemical,36000,0.67,Operational,Electric Energy Time Shift,Goldsmith,TX
171,Redding Electric Utilities (Phase 1) - Ice Energy,40.5865396,-122.3916754,Ice Thermal Storage,Thermal Storage,1000,6,Operational,Electric Energy Time Shift,Redding,CA
172, Anaheim Public Utility- Ice Energy,33.8352932,-117.91450359999999,Ice Thermal Storage,Thermal Storage,200,4.75,Operational,Electric Energy Time Shift,Anaheim,CA
173, Pillar Mountain Wind Project - Xtreme Power,57.4912463,-153.495022,Lead-acid Battery,Electro-chemical,3000,0.25,Operational,Electric Supply Reserve Capacity - Spinning,Kodiak Island,AK
174,National Grid Distributed Energy Storage Systems Demonstration - Vionx Energy,42.408429999999996,-71.0536625,Flow Battery,Electro-chemical,500,6,Operational,Electric Energy Time Shift,Everett,MA
175,Glendale Water and Power -  Ice Energy,34.1425078,-118.255075,Ice Thermal Storage,Thermal Storage,1500,6,Operational,Electric Energy Time Shift,Glendale,CA
176,Southern California Edison - HVAC Optimization Program,34.0805651,-118.072846,Ice Thermal Storage,Thermal Storage,750,6,Operational,Electric Bill Management,Rosemead ,CA
177,PNM Prosperity Energy Storage Project,34.986823,-106.6132321,Lead-acid Battery,Electro-chemical,500,4,Operational,Renewables Capacity Firming,Albuquerque,NM
178,XCEL MinnWind Wind-to-Battery Project - NGK,43.6541362,-96.2128071,Sodium based Battery,Electro-chemical,1000,7.2,Operational,Frequency Regulation,Luverne,MN
179,Battelle Memorial Institute Pacific Northwest Smart Grid Demonstration,44.9428975,-123.03509629999999,Lithium-ion Battery,Electro-chemical,5000,0.25,Operational,Electric Energy Time Shift,Salem,OR
180,St. Kilian Parish and School,40.683741,-80.072446,Ice Thermal Storage,Thermal Storage,100,6,Operational,Electric Bill Management,Cranberry Township,PA
181,Lanai Sustainability Research / La Ola PV Farm - Xtreme Power,20.8165975,-156.92731930000002,Lead-acid Battery,Electro-chemical,1125,0.25,Operational,Frequency Regulation,Lanai,HI
182,Kauai Island Utility Cooperative - Xtreme Power,21.9066667,-159.4691667,Lead-acid Battery,Electro-chemical,1500,0.25,Operational,Electric Supply Reserve Capacity - Non-Spinning,Koloa,HI
183,Bethel Park High School,40.3362589,-80.0450687,Ice Thermal Storage,Thermal Storage,375,6,Operational,Electric Bill Management,Bethel Park,PA
184,Golden Valley Electric Association (GVEA) Battery Energy Storage System (BESS),64.8377778,-147.7163889,Nickel based Battery,Electro-chemical,27000,0.25,Operational,Electric Supply Reserve Capacity - Spinning,Fairbanks,AK
185,Duquesne University,40.4359724,-79.9910907,Ice Thermal Storage,Thermal Storage,600,6,Operational,Electric Bill Management,Pittsburgh,PA
186,Olivenhain-Hodges Storage Project,33.12,-117.09,Open-loop Pumped Hydro Storage,Pumped Hydro Storage,40000,6,Operational,Electric Energy Time Shift,Escondido,CA
187,State of North Carolina - DN Tanks,35.774964399999995,-78.64036750000001,Chilled Water Thermal Storage,Thermal Storage,2590,8,Operational,Electric Energy Time Shift,Raleigh,NC
188,ETT / AEP Presidio NAS Energy Storage System - NGK,29.560738300000004,-104.3721465,Sodium based Battery,Electro-chemical,4000,8,Operational,Electric Supply Capacity,Presidio,TX
189,University of Arizona - Calmac,32.237685,-110.951927,Ice Thermal Storage,Thermal Storage,3000,6,Operational,Electric Bill Management,Tucson,AZ
190,Los Angeles Community College District - Calmac,34.086771999999996,-118.291731,Ice Thermal Storage,Thermal Storage,4620,6,Operational,Electric Bill Management,Los Angeles,CA
191,William & Flora Hewlett Foundation - Calmac,37.423912,-122.193597,Ice Thermal Storage,Thermal Storage,124,9,Operational,Electric Bill Management,Menlo Park,CA
192,EPCC Thermal Storage: Valle Verde,31.753527000000002,-106.36691299999998,Ice Thermal Storage,Thermal Storage,930,8,Operational,Electric Bill Management,El Paso,TX
193,El Capitan - Calmac,34.101323,-118.33974099999999,Ice Thermal Storage,Thermal Storage,150,6,Operational,Electric Bill Management,Los Angeles,CA
194,Long Island Bus BESS,40.7267682,-73.6342954,Sodium based Battery,Electro-chemical,1000,6.5,Operational,Black Start,Garden City,NY
195,Mission City Office Complex - Calmac,32.7832979,-117.1269331,Ice Thermal Storage,Thermal Storage,500,7,Operational,Electric Bill Management,San Diego,CA
196,Santa Rita Jail Smart Grid - Alameda County RDSI CERTS Microgrid Demonstration ,37.7176811,-121.88796090000001,Lithium-ion Battery,Electro-chemical,2000,2,Operational,Electric Bill Management,Dublin,CA
197,Fossil Ridge High School,40.512543,-105.01981299999998,Ice Thermal Storage,Thermal Storage,200,8,Operational,Electric Bill Management,Fort Collins,CO
198,Fort Sill Microgrid - EnSync (Formerly ZBB),34.6606037,-98.4046307,Flow Battery,Electro-chemical,250,2,Operational,Microgrid Capability,Fort Sill,OK
199,Illinois Institute of Technology RDSI Perfect Power Demonstration - EnSync Energy (formerly ZBB),41.8343395,-87.62378659999999,Flow Battery,Electro-chemical,250,2,Operational,Black Start,Chicago,IL
200,O-I World Headquarters,41.5285417,-83.64772099999999,Ice Thermal Storage,Thermal Storage,250,12,Operational,Electric Bill Management,Perrysburg,OH
201,Pualani Manor- EnSync Energy (formerly ZBB),21.32166,-157.864528,Flow Battery,Electro-chemical,60,2.5,Operational,Black Start,Honolulu,HI
202,St. Petersburg Solar Parks Project - EnSync Energy (formerly ZBB),27.773055600000003,-82.64,Flow Battery,Electro-chemical,25,2,Operational,Electric Bill Management with Renewables,St. Petersburg,FL
203,East Penn Manufacturing Co. Grid-Scale Energy Storage Demonstration,40.4776121,-75.7667739,Lead-acid Battery,Electro-chemical,3000,0.72,Operational,Frequency Regulation,Lyon Station,PA
204,University of Central Florida - DN Tanks,28.6004783,-81.2013732,Chilled Water Thermal Storage,Thermal Storage,3000,8,Operational,Electric Energy Time Shift,Orlando,FL
205,Penta Career Center Thermal Storage,41.5818,-83.57205400000001,Ice Thermal Storage,Thermal Storage,750,16,Operational,Electric Bill Management,Perrysburg,OH
206,LIRR Malverne WESS: Maxwell Technologies,40.6754071,-73.6692196,Electro-chemical Capacitor,Electro-chemical,1000,0.2,Operational,Transportation Services,Malverne,NY
207,DTE Community Energy Storage for Grid Support - Monroe Community College CES Unit,41.916447999999995,-83.46615200000001,Lithium-ion Battery,Electro-chemical,500,0.5,Operational,Electric Bill Management with Renewables,Monroe,MI
208,Metlakatla BESS,55.0845439,-131.582469,Lead-acid Battery,Electro-chemical,1000,1.4,Operational,Electric Supply Reserve Capacity - Spinning,Metlakatla,AK
209,Cal Poly - Amonix / Greensmith Energy,34.0569172,-117.8217494,Lithium-ion Battery,Electro-chemical,75,2,Operational,Renewables Capacity Firming,Pomona,CA
210,SDG&E Century Park DESS - Greensmith Energy,32.8234495,-117.1430605,Lithium-ion Battery,Electro-chemical,50,1.67,Operational,Distribution upgrade due to solar,San Diego,CA
211,EPRI Energy Storage System Demonstration - BYD,35.922026200000005,-84.14212380000001,Lithium-ion Battery,Electro-chemical,50,0.92,Operational,Distribution upgrade due to solar,Knoxville,TN
212,EPRI Energy Storage System Demonstration - NEC,35.922026200000005,-84.14212380000001,Lithium-ion Battery,Electro-chemical,25,1.92,Operational,Distribution upgrade due to solar,Knoxville,TN
213,EPRI Energy Storage System Demonstration - Beckett Energy Systems,35.922026200000005,-84.14212380000001,Lithium-ion Battery,Electro-chemical,25,0.5,Operational,Distribution upgrade due to solar,Knoxville,TN
214,McIntosh CAES Plant,31.257220699999998,-88.0280479,Compressed Air Storage,Electro-mechanical,110000,26,Operational,Electric Energy Time Shift,McIntosh,AL
215,Kaheawa Wind Power Project II - Younicos,20.7963889,-156.5141667,Lead-acid Battery,Electro-chemical,10000,0.75,Operational,Electric Supply Reserve Capacity - Spinning,Maalaea,HI
216,7-Eleven Distributed Energy Storage System (DESS) - ConEdison / Green Charge Networks,40.754233,-73.900612,Lithium-ion Battery,Electro-chemical,100,0.97,Operational,Electric Bill Management,Woodside,NY
217,La Guardia Airport Avis Car Rental - Green Charge Networks,40.775851700000004,-73.8839579,Lithium-ion Battery,Electro-chemical,100,1.6,Operational,Electric Bill Management,Queens,NY
218,SustainX Inc Isothermal Compressed Air Energy Storage,42.900694200000004,-70.88161109999999,Compressed Air Storage,Electro-mechanical,1500,1,Operational,Ramping ,Seabrook,NH
219,Montezuma Canyon - Apollo Solar / Iron Edison,37.5333311,-109.23122420000001,Nickel based Battery,Electro-chemical,17,10,Operational,Distribution upgrade due to solar,Montezuma Canyon,UT
220,Las Cruces - Apollo Solar / Iron Edison,32.3199396,-106.7636538,Nickel based Battery,Electro-chemical,48,10,Operational,Electric Supply Capacity,Las Cruces,NM
221,Danbury Residence - Trace / Iron Edison,41.394816999999996,-73.45401109999999,Nickel based Battery,Electro-chemical,20,10,Operational,Distribution upgrade due to solar,Danbury,CT
222,Nissan Technical Center North America,42.508645,-83.4109834,Ice Thermal Storage,Thermal Storage,1425,16,Operational,Electric Bill Management,Farmington Hills,MI
223,JC Penney Headquarters - Calmac,33.0796578,-96.8321443,Ice Thermal Storage,Thermal Storage,4425,12,Operational,Electric Bill Management,Plano,TX
224,Underwriters Laboratories - Calmac,42.1455766,-87.8464909,Ice Thermal Storage,Thermal Storage,1250,14,Operational,Electric Bill Management,Northbrook,IL
225,Delta College Thermal Storage - Calmac,43.5579516,-83.98600359999999,Ice Thermal Storage,Thermal Storage,2025,16,Operational,Electric Bill Management,University Center,MI
226,AES Laurel Mountain,39.002039,-79.88770500000001,Lithium-ion Battery,Electro-chemical,32000,0.25,Operational,Frequency Regulation,Elkins,WV
227,Dynapower Headquarters - Enersys,44.442312,-73.153902,Lead-acid Battery,Electro-chemical,250,4,Operational,Electric Bill Management,Burlington,VT
228,Beacon Power 20 MW Flywheel Frequency Regulation Plant,40.9568399,-76.0275859,Flywheel,Electro-mechanical,20000,0.25,Operational,Frequency Regulation,Hazle Township,PA
229,AEP Charleston NaS Energy Storage Project,38.3498195,-81.6326234,Sodium based Battery,Electro-chemical,1200,6,Operational,Electric Energy Time Shift,Charleston,WV
230,John W. Keys III Pump-Generating Plant,47.953884,-118.989547,Open-loop Pumped Hydro Storage,Pumped Hydro Storage,314000,80,Operational,Electric Energy Time Shift,Grand Coulee,WA
231,Castaic Pumped-Storage Plant,34.6548333,-118.77518429999999,Open-loop Pumped Hydro Storage,Pumped Hydro Storage,1247000,10,Operational,Electric Energy Time Shift,Pyramid Lake,CA
232,Helms Pumped Hydro Storage Project,37.039152,-118.96373,Open-loop Pumped Hydro Storage,Pumped Hydro Storage,1212000,n/a,Operational,Electric Energy Time Shift,Fresno County,CA
233,PG&E Vaca Battery Energy Storage Pilot Project,38.3565773,-121.98774440000001,Sodium based Battery,Electro-chemical,2000,7,Operational,Electric Energy Time Shift,Vacaville,CA
234,STMicroelectronics UPS System - S&C Electric,33.643684,-112.060672,Lead-acid Battery,Electro-chemical,10000,n/a,Operational,Grid-Connected Commercial (Reliability & Quality) ,Phoenix,AZ
235,Waiawa High PV Penetration Circuit,21.438912300000002,-158.0000565,Lithium-ion Battery,Electro-chemical,1000,0.25,Operational,Frequency Regulation,Oahu,HI
236,San Luis (William R. Gianelli) Pumped Storage Hydroelectric Powerplant,37.069105,-121.077373,Open-loop Pumped Hydro Storage,Pumped Hydro Storage,424000,298,Operational,Electric Energy Time Shift,Gustine,CA
237,Vernon Battery Energy Storage System (BESS),34.007121999999995,-118.1926828,Lead-acid Battery,Electro-chemical,5000,0.7,Operational,Electric Bill Management,Vernon,CA
238,Big Creek (John S. Eastwood) Pumped Storage,37.104114,-119.31762579999999,Open-loop Pumped Hydro Storage,Pumped Hydro Storage,199800,17.67,Operational,Electric Energy Time Shift,Shaver Lake,CA
239,Beacon Smart Energy Matrix FESS,37.7799273,-121.9780153,Flywheel,Electro-mechanical,100,0.25,Operational,Frequency Regulation,San Ramon,CA
240,Marshall Steam Station Energy Storage Project,35.597325,-80.964854,Lithium-ion Battery,Electro-chemical,250,3,Operational,Electric Energy Time Shift,Sherrills Ford,NC
241,Altairnano-PJM Li-ion Battery Ancillary Services Demo,40.4776121,-75.7667739,Lithium-ion Battery,Electro-chemical,1000,0.25,Operational,Frequency Regulation,Lyons,PA
242,KPC&L Green Impact Zone SmartGrid ,39.040287899999996,-94.57104090000001,Lithium-ion Battery,Electro-chemical,1000,1,Operational,Distribution upgrade due to solar,Kansas City,MO
243,Edward Hyatt (Oroville) Power Plant,39.513775200000005,-121.55635900000001,Open-loop Pumped Hydro Storage,Pumped Hydro Storage,819000,n/a,Operational,Electric Energy Time Shift,Oroville,CA
244,Mount Elbert Power Plant,39.094097999999995,-106.352352,Open-loop Pumped Hydro Storage,Pumped Hydro Storage,200000,12,Operational,Black Start,Leadville,CO
245,Horse Mesa Pumped Hydro Storage,33.590733,-111.34378899999999,Open-loop Pumped Hydro Storage,Pumped Hydro Storage,97000,n/a,Operational,Electric Energy Time Shift,Apache Junction,AZ
246,Raccoon Mountain Pumped Storage Plant,35.019816299999995,-85.3688937,Open-loop Pumped Hydro Storage,Pumped Hydro Storage,1652000,22,Operational,Electric Energy Time Shift,Chattanooga,TN
247,Lewiston Pump-Generating Plant,43.142984000000006,-79.02180600000001,Open-loop Pumped Hydro Storage,Pumped Hydro Storage,240000,n/a,Operational,Electric Energy Time Shift,Lewiston,NY
248,Ludington Pumped Storage,43.894481,-86.44311,Open-loop Pumped Hydro Storage,Pumped Hydro Storage,1872000,8,Operational,Electric Energy Time Shift,Ludington,MI
249,Northfield Mountain Pumped Storage Hydroelectricity Facility ,42.610827,-72.471313,Open-loop Pumped Hydro Storage,Pumped Hydro Storage,1119000,7.58,Operational,Electric Energy Time Shift,Northfield,MA
250,Muddy Run Pumped Hydro Storage,39.847457,-76.2906717,Open-loop Pumped Hydro Storage,Pumped Hydro Storage,1070000,n/a,Operational,Electric Energy Time Shift,West Holtwood,PA
251,Bad Creek Pumped Hydro Storage,35.010984,-83.00986,Open-loop Pumped Hydro Storage,Pumped Hydro Storage,1065000,24,Operational,Electric Energy Time Shift,Oconee County,SC
252,Jocassee Pumped Hydro Storage,34.960334,-82.916851,Open-loop Pumped Hydro Storage,Pumped Hydro Storage,710000,n/a,Operational,Electric Energy Time Shift,Pickens County,SC
253,Bear Swamp Hydroelectric Power Station,42.687055,-72.96169300000001,Open-loop Pumped Hydro Storage,Pumped Hydro Storage,600000,5,Operational,Electric Energy Time Shift,Rowe,MA
254,Fairfield Pumped Storage,34.2993741,-81.30693149999999,Open-loop Pumped Hydro Storage,Pumped Hydro Storage,511200,6.97,Operational,Electric Energy Time Shift,Jenkinsville,SC
255,Yards Creek Pumped Storage,41.00095,-75.031705,Open-loop Pumped Hydro Storage,Pumped Hydro Storage,400000,6,Operational,Electric Energy Time Shift,Blairstown,NJ
256,Seneca Pumped Storage Generating Station,41.831299,-79.010186,Open-loop Pumped Hydro Storage,Pumped Hydro Storage,440000,n/a,Operational,Electric Energy Time Shift,Mead Township,PA
257,Taum Sauk Hydroelectric Power Station,37.4537502,-90.8435728,Open-loop Pumped Hydro Storage,Pumped Hydro Storage,440000,8,Operational,Electric Energy Time Shift,Lesterville,MO
258,Richard B. Russell Pumped Storage,34.025195000000004,-82.59467,Open-loop Pumped Hydro Storage,Pumped Hydro Storage,600000,n/a,Operational,Electric Energy Time Shift,Richard B. Russell Lake,GA
259,Cabin Creek Generating Station,39.7060984,-105.6975041,Open-loop Pumped Hydro Storage,Pumped Hydro Storage,324000,4,Operational,Black Start,Georgetown,CO
260,Salina Pumped Storage Project,36.26566,-95.10455999999999,Open-loop Pumped Hydro Storage,Pumped Hydro Storage,260000,n/a,Operational,Electric Energy Time Shift,Salina,OK
261,Carters Dam Pumped Storage,34.7659145,-84.7699385,Open-loop Pumped Hydro Storage,Pumped Hydro Storage,250000,n/a,Operational,Electric Energy Time Shift,Chatsworth,GA
262,Smith Mountain Pumped Storage Project,37.049713399999995,-79.6393985,Open-loop Pumped Hydro Storage,Pumped Hydro Storage,560000,n/a,Operational,Electric Energy Time Shift,Smith Mountain Lake,VA
263,Wallace Dam Pumped Storage,33.350038,-83.157226,Open-loop Pumped Hydro Storage,Pumped Hydro Storage,208000,n/a,Operational,Electric Energy Time Shift,Milledgeville,GA
264,Clarence Cannon Dam Pumped Storage,39.524633,-91.643845,Open-loop Pumped Hydro Storage,Pumped Hydro Storage,58000,n/a,Operational,Electric Energy Time Shift,Mark Twain Lake,MO
265,Mormon Flat Pumped Hydro Storage,33.465908,-112.03185900000001,Open-loop Pumped Hydro Storage,Pumped Hydro Storage,50000,n/a,Operational,Electric Energy Time Shift,Tonto National Forest,AZ
266,New Waddell Dam Pumped Hydro Storage,33.2917968,-112.42914640000002,Open-loop Pumped Hydro Storage,Pumped Hydro Storage,45000,n/a,Operational,Electric Energy Time Shift,Maricopa County,AZ
267,DeGray Lake Pumped Hydro Storage,34.213623999999996,-93.110407,Open-loop Pumped Hydro Storage,Pumped Hydro Storage,28000,n/a,Operational,Electric Energy Time Shift,DeGray Lake,AR
268,Blenheim-Gilboa Pumped Storage Power Project,42.442978000000004,-74.448187,Open-loop Pumped Hydro Storage,Pumped Hydro Storage,1160000,15,Operational,Electric Energy Time Shift,North Blenheim,NY
269,CCET Technology Solutions for Wind Integration,33.593410399999996,-102.0291177,Lithium-ion Battery,Electro-chemical,1000,1,Operational,Electric Supply Reserve Capacity - Spinning,Lubbock,TX
270,New Belgium Brewery  - City of Fort Collins Utilities,40.593415,-105.066874,Ice Thermal Storage,Thermal Storage,135,6,Operational,Electric Bill Management,Fort Collins,CO
271,Borrego Springs Microgrid - SDG&E ,33.2558717,-116.37501200000001,Lithium-ion Battery,Electro-chemical,500,3,Operational,Load Following (Tertiary Balancing),Borrego Springs,CA
272,SDG&E Borrego Springs Microgrid Demonstration Project: Community Energy Storage,33.2558717,-116.37501200000001,Lithium-ion Battery,Electro-chemical,75,2,Operational,Electric Energy Time Shift,Borrego Springs,CA
273,SDG&E Borrego Springs Microgrid Demonstration Project: Home Energy Storage,33.2558717,-116.37501200000001,Lithium-ion Battery,Electro-chemical,24,2,Operational,Distribution upgrade due to solar,Borrego Springs,CA
274,University of Hawaii Smart Grid Regional and Energy Storage Demonstration Project (Maui Smart Grid),20.683746,-156.429947,Lithium-ion Battery,Electro-chemical,1000,1,Operational,Electric Energy Time Shift,Wailea,HI
275,Allegheny Power Demonstration Project (RDSI) - West Virginia Super Circuit,39.629526,-79.9558968,Lithium-ion Battery,Electro-chemical,24,2,Operational,Electric Bill Management with Renewables,Morgantown,WV
276,O'Neill Pump-Generating Plant,37.0582786,-120.84991509999999,Open-loop Pumped Hydro Storage,Pumped Hydro Storage,25200,n/a,Operational,Electric Energy Time Shift,Los Banos,CA
277,Flatiron Powerplant,40.364905,-105.23579699999999,Open-loop Pumped Hydro Storage,Pumped Hydro Storage,8500,n/a,Operational,Electric Energy Time Shift,Loveland,CO
278,McAlpine Circuit CES System,35.2270869,-80.8431267,Lithium-ion Battery,Electro-chemical,50,1,Operational,Electric Bill Management,Charlotte,NC
279,Rocky River Pumped Storage Plant,41.58258,-73.433801,Open-loop Pumped Hydro Storage,Pumped Hydro Storage,29000,n/a,Operational,Electric Energy Time Shift,New Milford,CT
280,Anchorage Area Battery Energy Storage System,61.2163655,-149.8889459,Lithium-ion Battery,Electro-chemical,25000,0.57,Operational,Electric Energy Time Shift,Anchorage,AK
281,AEP Milton NaS Battery Energy Storage System,38.4345321,-82.1323637,Sodium based Battery,Electro-chemical,2000,6,Operational,Electric Energy Time Shift,Milton,WV
282,AEP Churubusco NaS Battery Energy Storage System,41.2306034,-85.3194208,Sodium based Battery,Electro-chemical,2000,6,Operational,Transportable Transmission/Distribution Upgrade Deferral,Churubusco,IN
283,AEP Bluffton NaS Energy Storage System,40.8953301,-83.8888288,Sodium based Battery,Electro-chemical,2000,6,Operational,Transportable Transmission/Distribution Upgrade Deferral,Bluffton,OH
284,SCE Irvine Smart Grid Demonstration: RESU,33.6387024,-117.8370041,Lithium-ion Battery,Electro-chemical,56,2.5,Operational,Renewables Capacity Firming,Irvine,CA
285,HECO/Greensmith Energy Battery Energy Storage System,21.3069444,-157.8583333,Lithium-ion Battery,Electro-chemical,5,4,Operational,Onsite Renewable Generation Shifting,Honolulu,HI
286,ATK Launch Systems Microgrid CAES,41.665572999999995,-112.435667,Compressed Air Storage,Electro-mechanical,80,0.75,Operational,Electric Bill Management,Promontory,UT
287,UNLV RDSI Demonstration Project,36.114646,-115.172816,Lithium-ion Battery,Electro-chemical,9,0.95,Operational,Electric Energy Time Shift,Las Vegas,NV
288,UCSD BMW 2nd Life EV Energy Storage System,32.8769207,-117.23614779999998,Lithium-ion Battery,Electro-chemical,108,1.67,Operational,Electric Bill Management with Renewables,La Jolla,CA
289,UCSD - BYD Energy Storage System,32.8769207,-117.23614779999998,Lithium-ion Battery,Electro-chemical,2500,2,Operational,Electric Bill Management with Renewables,La Jolla,CA
290,SNOPUD MESA 1a Project,47.9366303,-122.24794170000001,Lithium-ion Battery,Electro-chemical,1000,0.5,Operational,Electric Energy Time Shift,Everett,WA
291,South Austin Recreational Center Distributed Energy Storage Pilot,30.241834000000004,-97.76795,Ice Thermal Storage,Thermal Storage,15,4.67,Operational,Electric Bill Management,Austin,TX
292,Ice Energy Big Box Retailer Project,36.114646,-115.172816,Ice Thermal Storage,Thermal Storage,38,4.67,Operational,Electric Bill Management,Las Vegas,NV
293,Ice Energy Storage at Staples Retailer,40.1421639,-74.2255465,Ice Thermal Storage,Thermal Storage,38,4.67,Operational,Electric Bill Management,Howell,NJ
294,Axion PowerCube for PJM,41.0648451,-80.3624375,Lead-acid Battery,Electro-chemical,500,0.5,Operational,Frequency Regulation,New Castle,PA
295,Ice Energy Manufacturing Facility Project,40.578748499999996,-105.0049308,Ice Thermal Storage,Thermal Storage,24,6,Operational,Electric Bill Management,Fort Collins,CO
296,Park Marina Building,40.582701,-122.37038899999999,Ice Thermal Storage,Thermal Storage,132,6,Operational,Electric Bill Management,Redding,CA
297,Rocky Mountain Hydroelectric Plant,34.2828967,-85.23084140000002,Open-loop Pumped Hydro Storage,Pumped Hydro Storage,1095000,n/a,Operational,Electric Supply Reserve Capacity - Spinning,Floyd County,GA
298,Encinitas Civic Center,33.044753,-117.26723100000001,Ice Thermal Storage,Thermal Storage,75,6,Operational,Electric Bill Management,Encinitas,CA
299,Nordstrom (Ala Moana Center) - Calmac,21.291288100000003,-157.84296469999998,Ice Thermal Storage,Thermal Storage,1200,6,Operational,Electric Bill Management,Honolulu,HI
300,Shell Point Retirement Village,26.515668100000003,-81.99571379999999,Ice Thermal Storage,Thermal Storage,4800,6,Operational,Electric Bill Management,Fort Myers,FL
301,Cache Creek Casino,38.7342564,-122.14293570000001,Chilled Water Thermal Storage,Thermal Storage,1300,6,Operational,Electric Bill Management,Brooks,CA
302,VA Medical Center,32.694882,-96.789985,Chilled Water Thermal Storage,Thermal Storage,2300,8,Operational,Electric Bill Management,Dallas,TX
303,Lackland Air Force Base,29.38263,-98.6133217,Chilled Water Thermal Storage,Thermal Storage,580,8,Operational,Electric Bill Management,San Antonio,TX
304,Geisinger Health System,40.9678905,-76.6050616,Chilled Water Thermal Storage,Thermal Storage,700,8,Operational,Electric Bill Management,Danville,PA
305,University of Texas Pan-Am,26.3052059,-98.175972,Chilled Water Thermal Storage,Thermal Storage,875,8,Operational,Electric Bill Management,Edinburg,TX
306,Texas Instruments Manufacturing Plant,32.780139899999995,-96.80045109999999,Chilled Water Thermal Storage,Thermal Storage,6400,8,Operational,Electric Bill Management,Dallas,TX
307,Federal Government Facility Chilled Water TES,38.52245,-77.289687,Chilled Water Thermal Storage,Thermal Storage,274,2.5,Operational,Electric Bill Management,Quantico,VA
308,American Online Data Center,38.8942786,-77.4310992,Chilled Water Thermal Storage,Thermal Storage,1500,2,Operational,Electric Bill Management,Chantilly,VA
309,Thermal Storage at San Antonio International Airport,29.528015500000002,-98.4754012,Chilled Water Thermal Storage,Thermal Storage,422,8,Operational,Electric Bill Management,San Antonio,TX
310,GE Wind Durathon Battery Project ,31.6137467,-98.5721016,Sodium based Battery,Electro-chemical,300,4,Operational,Frequency Regulation,Tehachapi,TX
311,Auwahi Wind Farm ,20.790969699999998,-156.32693380000003,Lithium-ion Battery,Electro-chemical,11000,0.4,Operational,Ramping ,Kula,HI
312,Texas Dispatchable Wind,32.71899260000001,-102.64491009999999,Compressed Air Storage,Electro-mechanical,2000,250,Operational,Electric Supply Capacity,Seminole,TX
313,EaglePicher HQ PowerPyramid,37.0944308,-94.5279523,Lead-acid Battery,Electro-chemical,1000,2,Operational,Electric Bill Management,Joplin,MO
314,SCE Irvine Smart Grid Demonstration: CES,33.6387024,-117.8370041,Lithium-ion Battery,Electro-chemical,25,2,Operational,Load Following (Tertiary Balancing),Irvine,CA
315,SCE Irvine Smart Grid Demonstration: Solar Car Charging Station,33.6839473,-117.79469420000001,Lithium-ion Battery,Electro-chemical,100,1,Operational,Electric Bill Management with Renewables,Irvine,CA
316,SCE Irvine Smart Grid Demonstration: Containerized Distributed Storage Unit,33.6588951,-117.8282121,Lithium-ion Battery,Electro-chemical,2000,0.25,Operational,Electric Energy Time Shift,Irvine,CA
317,TAS Thermal Storage with Combined-Cycle Cogeneration Plant,29.626103999999998,-95.067727,Chilled Water Thermal Storage,Thermal Storage,5100,10,Operational,Electric Energy Time Shift,Pasadena,TX
318,"National Grid Distributed Energy Storage Systems Demonstration (Worcester, MA)",42.262593200000005,-71.8022934,Flow Battery,Electro-chemical,500,6,Operational,Electric Energy Time Shift,Worcester,MA
319,McAlpine Energy Storage System - Duke Energy / BYD,35.053549600000004,-80.8211696,Lithium-ion Battery,Electro-chemical,200,2.5,Operational,Electric Energy Time Shift,Charlotte,NC
320,Clay Terrace Plug-In Ecosystem,39.978371,-86.1180435,Lithium-ion Battery,Electro-chemical,75,0.67,Operational,Electric Bill Management with Renewables,Carmel ,IN
321,Benton PUD Battery Energy Storage,46.2112458,-119.1372338,Lead-acid Battery,Electro-chemical,10,4,Operational,Electric Energy Time Shift,Kennewick,WA
322,SMUD 2500 R St. Housing Development,38.56601920000001,-121.4770676,Lithium-ion Battery,Electro-chemical,153,2.58,Operational,Electric Bill Management with Renewables,Sacramento,CA
323,Power Station Generation Storage,39.952335,-75.16378900000001,Chilled Water Thermal Storage,Thermal Storage,6000,8,Operational,Electric Energy Time Shift,Philadelphia,PA
324,Disney California Adventure,33.815351299999996,-117.92511850000001,Chilled Water Thermal Storage,Thermal Storage,2000,4,Operational,Electric Bill Management,Anaheim,CA
325,Solana Solar Generating Plant,32.918396,-112.972472,Molten Salt Thermal Storage,Thermal Storage,280000,6,Operational,Renewables Energy Time Shift,Gila Bend,AZ
326,TAS Texas Cooperative,33.218512,-98.15956130000001,Chilled Water Thermal Storage,Thermal Storage,90000,12,Operational,Electric Energy Time Shift,Jacksboro,TX
327,Crescent Dunes Solar Energy Project,38.237766,-117.382814,Molten Salt Thermal Storage,Thermal Storage,110000,10,Operational,Renewables Capacity Firming,Tonopah,NV
328,Barclay Tower,40.71232020000001,-74.0088229,Lead-acid Battery,Electro-chemical,225,8.83,Operational,Electric Bill Management,New York,NY
329,InterContinental Hotels Group Stem Energy Optimization System,37.781803700000005,-122.4047743,Lithium-ion Battery,Electro-chemical,15,1,Operational,Electric Bill Management,San Francisco,CA
330,UEP CCNY Demonstration,40.8195475,-73.9495176,Flow Battery,Electro-chemical,100,2,Operational,Electric Bill Management,New York,NY
331,PG&E Yerba Buena Battery Energy Storage Pilot Project,37.304269,-121.754479,Sodium based Battery,Electro-chemical,4000,7,Operational,Electric Energy Time Shift,San Jose,CA
332,Peak Shaving Battery at BMW Technology,37.425832,-122.097974,Lithium-ion Battery,Electro-chemical,100,2.33,Operational,Demand Response,Mountain View,CA
333,CLPCCD - Utility Infrastructure Project,37.639612799999995,-122.1026487,Ice Thermal Storage,Thermal Storage,890,4.67,Operational,Electric Bill Management,Hayward,CA
334,AES Tait Battery Array,39.7256182,-84.2113632,Lithium-ion Battery,Electro-chemical,20000,n/a,Operational,Frequency Regulation,Moraine,OH
335,Japan-US Collaborative Smart Grid Project,35.878314700000004,-106.3185697,Sodium based Battery,Electro-chemical,1000,6,Operational,Distribution upgrade due to solar,Los Alamos,NM
336,NEDO New Mexico Smart Grid Demonstration Project,35.888079600000005,-106.3069722,Lead-acid Battery,Electro-chemical,800,1,Operational,Renewables Capacity Firming,Los Alamos,NM
337,SkyGrid Energy,20.2388832,-155.8050118,Lithium-ion Battery,Electro-chemical,100,0.25,Operational,On-Site Power,North Kohala,HI
338,AEP Ohio gridSMART Demonstration Project,39.965144,-83.005961,Lithium-ion Battery,Electro-chemical,100,1,Operational,Electric Energy Time Shift,Columbus,OH
339,Long Island Power Authority Long Island Smart Energy Corridor,40.72330039999999,-73.5935824,Lead-acid Battery,Electro-chemical,8,n/a,Operational,Electric Energy Time Shift,Uniondale,NY
340,ConEdison Interoperability of Demand Response Resources: Thermal,40.7138275,-74.0131657,Ice Thermal Storage,Thermal Storage,1000,10,Operational,Electric Bill Management,New York,NY
341,Pecan Street Project Inc. Energy Internet Demonstration,30.395297600000003,-97.7352087,Lithium-ion Battery,Electro-chemical,15,2.5,Operational,Electric Energy Time Shift,Austin,TX
342,Green Charge Networks Lithium Ion Distributed Energy Storage System at 7-Eleven,40.744869,-73.776886,Lithium-ion Battery,Electro-chemical,100,1,Operational,Electric Bill Management,Queens,NY
343,San Diego Zoo Solar-to-EV Project,32.7360673,-117.1492696,Lithium-ion Battery,Electro-chemical,100,1,Operational,Grid-Connected Residential (Reliability),San Diego,CA
344,PDE Smart Microgrid System,33.979751,-118.14469299999999,Lithium-ion Battery,Electro-chemical,90,0.33,Operational,Electric Bill Management with Renewables,Commerce,CA
345,SCPPA Thermal Energy Storage Program ,34.117787899999996,-117.82261629999999,Ice Thermal Storage,Thermal Storage,2427,6,Operational,Electric Energy Time Shift,Glendora,CA
346,DOD Marine Corps Air Station Miramar Microgrid Energy Storage System,32.8701459,-117.1441227,Flow Battery,Electro-chemical,250,4,Operational,Black Start,San Diego,CA
347,Grid on Wheels,39.6777096,-75.7542004,Lithium-ion Battery,Electro-chemical,360,2.5,Operational,Electric Supply Reserve Capacity - Spinning,Newark,DE
348,1500 Walnut,39.948958000000005,-75.16644699999999,Ice Thermal Storage,Thermal Storage,210,6,Operational,Electric Bill Management,Philadelphia,PA
349,AllCell Chicago EV Charging Station,42.0450722,-87.6876969,Lithium-ion Battery,Electro-chemical,40,n/a,Operational,On-Site Power,Evanston,IL
350,Rice Solar Energy Project,34.072967999999996,-114.813884,Molten Salt Thermal Storage,Thermal Storage,150000,8,Operational,Renewables Capacity Firming,Rice,CA
351,Nevada Solar One Solar Power Plant,35.800171999999996,-114.98125900000001,Thermal Storage,Thermal Storage,72000,0.5,Operational,Renewables Capacity Firming,Boulder City,NV
352,Fort Hunter Liggett Battery Storage Project,36.0079494,-121.235173,Lithium-ion Battery,Electro-chemical,1000,1,Operational,Onsite Renewable Generation Shifting,Fort Hunter Liggett,CA
353,Pennsylvania ATLAS (Aggregated Transactive Load Asset),40.9995386,-75.1812913,Heat Thermal Storage,Thermal Storage,2010,5,Operational,Frequency Regulation,East Stroudsburg,PA
354,VCharge Concord Pilot,42.4603719,-71.34894840000001,Heat Thermal Storage,Thermal Storage,175,5,Operational,Frequency Regulation,Concord,MA
355,VCharge Maine ATLAS (Aggregated Transactive Load Asset),43.661471,-70.2553259,Heat Thermal Storage,Thermal Storage,300,5,Operational,Frequency Regulation,Portland,ME
356,Wright-Hennepin Solar Community,45.0880899,-93.7201203,Lead-acid Battery,Electro-chemical,37,2,Operational,Electric Bill Management,Rockford,MN
357,Austin Utilities Energy Storage Pilot,43.6691809,-92.9697639,Lead-acid Battery,Electro-chemical,37,2,Operational,Electric Bill Management,Austin,MN
358,Shakopee Public Utilities- Environmental Learning Center,44.79739620000001,-93.5272861,Lead-acid Battery,Electro-chemical,9,2,Operational,Renewables Capacity Firming,Shakopee,MN
359,Green Mountain Power Ice Energy Project 1 ,43.6076674,-72.9803603,Ice Thermal Storage,Thermal Storage,45,4.67,Operational,Electric Bill Management,Rutland,VT
360,LA Metro Wayside Flywheel Energy Storage System,34.05637,-118.274883,Flywheel,Electro-mechanical,2000,n/a,Operational,Transportation Services,Los Angeles,CA
361,Schooner America 2.0 Electric Populsion,40.7481266,-74.00831509999999,Lithium-ion Battery,Electro-chemical,250,2.5,Operational,On-Site Power,New York,NY
362,Carthage Water & Electric Plant,37.1620004,-94.31885129999999,Lead-acid Battery,Electro-chemical,100,2.27,Operational,Distribution upgrade due to solar,Carthage,MO
363,NRECA/CRN - Distributed Energy Storage Research Project (Federated),43.6346107,-94.9952283,Lead-acid Battery,Electro-chemical,5,2,Operational,Electric Energy Time Shift,Jackson ,MN
364,Duke Energy- Residential,35.053549600000004,-80.8211696,Lithium-ion Battery,Electro-chemical,6,1.83,Operational,Grid-Connected Residential (Reliability),Charlotte,NC
365,NRECA/CRN - Distributed Energy Storage Research Project (Meeker),45.138570200000004,-94.52894549999999,Lead-acid Battery,Electro-chemical,5,2,Operational,Electric Energy Time Shift,Litchfield,MN
366,NRECA/CRN: Distributed Energy Storage Research Project (Minnesota Valley Electric),44.6671365,-93.6133863,Lead-acid Battery,Electro-chemical,32,2,Operational,Electric Energy Time Shift,Jordan,MN
367,NRECA/CRN - Distributed Energy Storage Research Project (Wright-Hennepin),45.092723299999996,-93.7465301,Lead-acid Battery,Electro-chemical,64,2,Operational,Electric Energy Time Shift,Rockford,MN
368,Holaniku at Keahole Point,19.726761800000002,-156.06186019999998,Heat Thermal Storage,Thermal Storage,2000,2,Operational,Renewables Capacity Firming,Keahole Point,HI
369,Nevada Energy Battery Storage Project (Villa Trieste),36.144997,-115.228407,Lithium-ion Battery,Electro-chemical,5,2,Operational,Electric Energy Time Shift,Las Vegas,NV
370,Discovery Science Center Durathon Battery,33.77025379999999,-117.86786409999998,Sodium based Battery,Electro-chemical,100,5,Operational,Electric Bill Management,Santa Ana,CA
371,Arista Durathon Battery Project,43.191445,-77.66086899999999,Sodium based Battery,Electro-chemical,100,2,Operational,Electric Bill Management,Rochester,NY
372,29 Palms Durathon Battery Project,33.8302961,-116.54529209999998,Sodium based Battery,Electro-chemical,500,2,Operational,Black Start,Palm Springs,CA
373,Hiwassee Dam,35.1134803,-84.05902900000001,Open-loop Pumped Hydro Storage,Pumped Hydro Storage,185000,n/a,Operational,Electric Energy Time Shift,Cherokee County,NC
374,Nevada Solar One R&D Project,35.800171999999996,-114.98125900000001,Heat Thermal Storage,Thermal Storage,100,1,Operational,Renewables Capacity Firming,Boulder City,NV
375,PV and EV Charging Systems at Sporting Venue ,33.4483771,-112.07403729999999,Flow Battery,Electro-chemical,25,2,Operational,Onsite Renewable Generation Shifting,Phoenix,AZ
376,Joint Base Pearl Harbor Hickam (JBPHH) U.S. Military Base,21.3069444,-157.8583333,Flow Battery,Electro-chemical,125,3.33,Operational,Black Start,Honolulu ,HI
377,VISA (Data Processing Center),39.0437567,-77.4874416,Flow Battery,Electro-chemical,25,2,Operational,On-Site Power,Ashburn,VA
378,Clean Energy Storage: Advanced Energy Storage Research & Innovation Center,47.5877433,-122.24134640000001,Lithium-ion Battery,Electro-chemical,30,12,Operational,Onsite Renewable Generation Shifting,Renton,WA
379,Green Charge Networks (Yonkers Site 1),40.95984,-73.8801301,Lithium-ion Battery,Electro-chemical,96,1,Operational,Electric Bill Management,Yonkers,NY
380,Carlsbad 7-Eleven Green Charge Networks Greenstation,33.121631,-117.318757,Lithium-ion Battery,Electro-chemical,30,1,Operational,Electric Bill Management,Carlsbad,CA
381,Green Charge Networks Greenstation (Norwalk Site 1),33.9165615,-118.0885033,Lithium-ion Battery,Electro-chemical,30,1,Operational,Electric Bill Management,Norwalk,CA
382,Green Charge Networks Greenstation (San Diego Site 1),32.816842,-117.155162,Lithium-ion Battery,Electro-chemical,30,1,Operational,Electric Bill Management,San Diego,CA
383,Green Charge Networks Greenstation (San Diego Site 2),32.805856899999995,-117.218589,Lithium-ion Battery,Electro-chemical,30,1,Operational,Electric Bill Management,San Diego,CA
384,CSU Fullerton Green Charge Networks Greenstation,33.8800938,-117.8854977,Lithium-ion Battery,Electro-chemical,480,1,Operational,Electric Bill Management with Renewables,Fullerton,CA
385,Lancaster MOAH Green Charge Networks Greenstation,34.69818239999999,-118.14185800000001,Lithium-ion Battery,Electro-chemical,30,1,Operational,Electric Bill Management,Lancaster,CA
386,Green Charge Networks Greenstation (Playa Vista Site 1),33.97448060000001,-118.41777069999999,Lithium-ion Battery,Electro-chemical,30,1,Operational,Electric Bill Management,Playa Vista,CA
387,Green Charge Networks Greenstation (Aliso Viejo Site 1),33.5670813,-117.7272567,Lithium-ion Battery,Electro-chemical,30,1,Operational,Electric Bill Management with Renewables,Aliso Viejo,CA
388,Redwood City Parking Garage Green Charge Networks Greenstation,37.487550399999996,-122.2272435,Lithium-ion Battery,Electro-chemical,30,1,Operational,Electric Bill Management,Redwood City,CA
389,Redwood City Public Library Green Charge Networks Greenstation,37.5303628,-122.2578679,Lithium-ion Battery,Electro-chemical,30,1,Operational,Electric Bill Management,Redwood City,CA
390,Alcatraz Island Microgrid ,37.826977500000005,-122.4229555,Lead-acid Battery,Electro-chemical,400,4.75,Operational,Electric Supply Reserve Capacity - Non-Spinning,San Francisco,CA
391,Xcel SolarTAC CES Test,39.755625,-104.62003399999999,Sodium based Battery,Electro-chemical,25,2,Operational,Grid-Connected Residential (Reliability),Watkins,CO
392,SMUD Solar EV Charge Port,38.553074,-121.434074,Sodium based Battery,Electro-chemical,50,2.6,Operational,Electric Bill Management with Renewables,Sacramento,CA
393,Ice Energy project at 729 North Dalton Ave.,34.1340989,-117.9049371,Ice Thermal Storage,Thermal Storage,40,6,Operational,Electric Supply Capacity,Azusa,CA
394,Ice Energy project at 901 E Alosta Ave,34.129193900000004,-117.88902420000001,Ice Thermal Storage,Thermal Storage,120,6,Operational,Electric Supply Capacity,Azusa,CA
395,Ice Energy project at 701 E. Foothill Blvd,34.1349915,-117.8948003,Ice Thermal Storage,Thermal Storage,120,6,Operational,Electric Supply Capacity,Azusa,CA
396,Ice Energy project at 164 W. Magnolia,34.1780047,-118.31675829999999,Ice Thermal Storage,Thermal Storage,10,6,Operational,Electric Supply Capacity,Burbank,CA
397,Ice Energy project at 1028 Central St.,42.064180799999995,-87.6855735,Ice Thermal Storage,Thermal Storage,10,6,Operational,Electric Supply Capacity,Evanston,IL
398,Ice Energy project at 10661 Business Dr.,34.059657,-117.508592,Ice Thermal Storage,Thermal Storage,20,6,Operational,Electric Supply Capacity,Fontana,CA
399,Ice Energy project at 33317 Santiago Road,34.4600722,-118.2292712,Ice Thermal Storage,Thermal Storage,10,6,Operational,Electric Supply Capacity,Lancaster,CA
400,Ice Energy project at 1228 West Ave I,34.703565999999995,-118.152064,Ice Thermal Storage,Thermal Storage,10,6,Operational,Electric Supply Capacity,Lancaster,CA
401,Ice Energy project at 20th Street West,34.71050820000001,-118.16599140000001,Ice Thermal Storage,Thermal Storage,10,6,Operational,Electric Supply Capacity,Lancaster,CA
402,Ice Energy project at 27140 Eucalyptus Ave Suite A,33.9366088,-117.18748000000001,Ice Thermal Storage,Thermal Storage,10,6,Operational,Electric Supply Capacity,Moreno Valley,CA
403,Ice Energy project at 27130 Eucalyptus Ave Ste D,33.9362028,-117.1871983,Ice Thermal Storage,Thermal Storage,20,6,Operational,Electric Supply Capacity,Moreno Valley,CA
404,Ice Energy project at 27110 Eucalyptus Ave ste E,33.9361214,-117.18829790000001,Ice Thermal Storage,Thermal Storage,10,6,Operational,Electric Supply Capacity,Moreno Valley,CA
405,Ice Energy project at 27120 Eucalyptus Ave Ste B,33.9357329,-117.1879238,Ice Thermal Storage,Thermal Storage,20,6,Operational,Electric Supply Capacity,Moreno Valley,CA
406,Ice Energy project at 27200 Eucalyptus Ave,33.9381306,-117.1876847,Ice Thermal Storage,Thermal Storage,20,6,Operational,Electric Supply Capacity,Moreno Valley,CA
407,Ice Energy project at 1200 W Ogden Ave,41.7818646,-88.1751855,Ice Thermal Storage,Thermal Storage,10,6,Operational,Electric Supply Capacity,Naperville,IL
408,Ice Energy project at 348 Boston Post Road,41.26271,-73.00635059999999,Ice Thermal Storage,Thermal Storage,10,6,Operational,Electric Supply Capacity,Orange,CT
409,Ice Energy project at 385 Boston Post Road,41.260849,-73.00876509999999,Ice Thermal Storage,Thermal Storage,10,6,Operational,Electric Supply Capacity,Orange,CT
410,Ice Energy project at 7211 S. 16TH ST,33.3807809,-112.0473013,Ice Thermal Storage,Thermal Storage,10,6,Operational,Electric Supply Capacity,Phoenix,AZ
411,Ice Energy project at 2143 Hilltop Dr ,40.576710999999996,-122.357228,Ice Thermal Storage,Thermal Storage,20,6,Operational,Electric Supply Capacity,Redding,CA
412,Ice Energy project at 2155 Hilltop Dr Ste A,40.5764465,-122.35740190000001,Ice Thermal Storage,Thermal Storage,10,6,Operational,Electric Supply Capacity,Redding,CA
413,Ice Energy project at 2131 Hilltop Dr ,40.576902000000004,-122.3578919,Ice Thermal Storage,Thermal Storage,10,6,Operational,Electric Supply Capacity,Redding,CA
414,Ice Energy project at 1894 Churn Creek Rd ,40.5790762,-122.3540199,Ice Thermal Storage,Thermal Storage,120,6,Operational,Electric Supply Capacity,Redding,CA
415,Ice Energy project at 950 Twin View Blvd,40.6208069,-122.37028810000001,Ice Thermal Storage,Thermal Storage,20,6,Operational,Electric Supply Capacity,Redding,CA
416,Ice Energy project at 2010 Churn Creek Rd ,40.5779303,-122.3542463,Ice Thermal Storage,Thermal Storage,20,6,Operational,Electric Supply Capacity,Redding,CA
417,Ice Energy project at 100 Lake Blvd ,40.610057,-122.38021200000001,Ice Thermal Storage,Thermal Storage,20,6,Operational,Electric Supply Capacity,Redding,CA
418,Ice Energy project at 280 Hartnell Ave ,40.565095299999996,-122.3683135,Ice Thermal Storage,Thermal Storage,20,6,Operational,Electric Supply Capacity,Redding,CA
419,Ice Energy project at 2680 Radio Ln ,40.547908299999996,-122.37978500000001,Ice Thermal Storage,Thermal Storage,170,6,Operational,Electric Supply Capacity,Redding,CA
420,Ice Energy Project at 1540 Charles Dr Ste B,40.630611,-122.37544199999999,Ice Thermal Storage,Thermal Storage,10,6,Operational,Electric Bill Management,Redding,CA
421,The Old Pine St Schoolhouse (Cheesecakes Unlimited Restaurant) - Ice Energy,40.5885906,-122.3902193,Ice Thermal Storage,Thermal Storage,40,6,Operational,Electric Bill Management,Redding,CA
422,Redding Furniture and Mattress - Ice Energy,40.608546399999994,-122.37813159999999,Ice Thermal Storage,Thermal Storage,40,6,Operational,Electric Bill Management,Redding,CA
423,Redding Subaru - Ice Energy,40.5706464,-122.3637787,Ice Thermal Storage,Thermal Storage,30,6,Operational,Electric Bill Management,Redding,CA
424,Valley Ace Hardware - Ice Energy,40.564228,-122.346195,Ice Thermal Storage,Thermal Storage,30,6,Operational,Electric Bill Management,Redding,CA
425,Mountain View Medical Group - Ice Energy,40.580039899999996,-122.39086699999999,Ice Thermal Storage,Thermal Storage,30,6,Operational,Electric Bill Management,Redding,CA
426,Angelo's Pizza Parlor - Ice Energy,40.5812156,-122.3909419,Ice Thermal Storage,Thermal Storage,20,6,Operational,Electric Bill Management,Redding,CA
427,Kohl's Department Store - Ice Energy,40.592158000000005,-122.3543548,Ice Thermal Storage,Thermal Storage,20,6,Operational,Electric Bill Management,Redding,CA
428,Tortilla Flats Restaurant - Ice Energy,40.573885,-122.373998,Ice Thermal Storage,Thermal Storage,20,6,Operational,Electric Bill Management,Redding,CA
429,Skyway Recreation Products - Ice Energy,40.6263796,-122.3848097,Ice Thermal Storage,Thermal Storage,20,6,Operational,Electric Bill Management,Redding,CA
430,San Francisco Residence - Ice Energy,37.7169711,-122.4054726,Ice Thermal Storage,Thermal Storage,20,6,Operational,Electric Bill Management,San Francisco,CA
431,Citizens Bank - Green Mountain Power Ice Energy Project 2,43.607989,-72.98089399999999,Ice Thermal Storage,Thermal Storage,10,6,Operational,Electric Bill Management,Rutland,VT
432,St Charles City Purchasing Department - Ice Energy,41.903639299999995,-88.3014714,Ice Thermal Storage,Thermal Storage,10,6,Operational,Electric Bill Management,St Charles,IL
433,Wilson Creek Winery - Ice Energy,33.54781,-117.046058,Ice Thermal Storage,Thermal Storage,210,6,Operational,Electric Bill Management,Temecula,CA
434,Ponte Winery - Ice Energy,33.536932,-117.0507219,Ice Thermal Storage,Thermal Storage,60,6,Operational,Electric Bill Management,Temecula,CA
435,Brooklyn Army Terminal Smart Grid Demonstration Project,40.6439672,-74.02479659999999,Lead-acid Battery,Electro-chemical,100,4,Operational,Electric Bill Management with Renewables,Brooklyn,NY
436,China Lake Microgrid,35.6507888,-117.66173,Lead-acid Battery,Electro-chemical,200,4,Operational,On-Site Power,Ridgecrest,CA
437,Del Lago Academy (IES),33.0982635,-117.1037774,Lithium-ion Battery,Electro-chemical,100,2,Operational,Electric Bill Management with Renewables,Escondido,CA
438,Fort Bliss Microgrid,31.807211300000002,-106.43366929999999,Lead-acid Battery,Electro-chemical,300,0.33,Operational,Electric Bill Management,Fort Bliss,TX
439,Solar Grid Storage Hackettstown,40.85398789999999,-74.82905550000001,Lithium-ion Battery,Electro-chemical,250,0.5,Operational,Frequency Regulation,Hackettstown,NJ
440,Solar Grid Storage Denville,40.892321200000005,-74.4773775,Lithium-ion Battery,Electro-chemical,250,0.5,Operational,Frequency Regulation,Denville,NJ
441,PSU GridSTAR Microgrid Test Center,39.892615899999996,-75.172558,Lithium-ion Battery,Electro-chemical,250,0.5,Operational,Frequency Regulation,Philadelphia,PA
442,Konterra Realty HQ ESS,39.087324,-76.897812,Lithium-ion Battery,Electro-chemical,500,0.5,Operational,Frequency Regulation,Laurel,MD
443,SEPTA Recycled Energy and Optimization Project - Viridity,39.9866038,-75.1296885,Lithium-ion Battery,Electro-chemical,800,0.5,Operational,Frequency Regulation,Philadelphia,PA
444,PSE Storage Innovation Project - Primus Power,47.6134732,-122.19499669999999,Flow Battery,Electro-chemical,500,2,Operational,Electric Supply Capacity,Bellevue,WA
445,Halotechnics Advanced Molten Glass for Heat Transfer and Thermal Energy Storage,37.831315999999994,-122.2852473,Heat Thermal Storage,Thermal Storage,5,6,Operational,Renewables Capacity Firming,Emeryille,CA
446,UCSD - Maxwell Technologies Ultracapacitor Bank,32.8769207,-117.23614779999998,Electro-chemical Capacitor,Electro-chemical,28,0.8,Operational,Frequency Regulation,La Jolla,CA
447,DTE Community Energy Storage for Grid Support - Residential CES Units,41.910738,-83.427436,Lithium-ion Battery,Electro-chemical,500,2,Operational,Electric Bill Management with Renewables,Monroe,MI
448,SCE Catalina Island Energy Storage,33.3397913,-118.314218,Sodium based Battery,Electro-chemical,1000,7.2,Operational,Electric Bill Management,Avalon,CA
449,SDG&E Julian - S&C / Kokam,33.0786552,-116.60196370000001,Lithium-ion Battery,Electro-chemical,1000,2.3,Operational,Microgrid Capability,Julian,CA
450,American Vanadium Corp. MTA CellCube Installation,40.7045973,-74.01306650000001,Flow Battery,Electro-chemical,90,4.33,Operational,Grid-Connected Commercial (Reliability & Quality) ,New York,NY
451,RES Battery Utility of Ohio,40.261109000000005,-82.831654,Lithium-ion Battery,Electro-chemical,4000,0.65,Operational,Frequency Regulation,Sunbury,OH
452,SEPTA Wayside Energy Storage System - Griscom Lithium-Ion,40.01706420000001,-75.0846955,Lithium-ion Battery,Electro-chemical,900,0.5,Operational,Frequency Regulation,Philadelphia,PA
453,Stafford Hill Solar Farm & Microgrid: Lead Acid,43.619415999999994,-72.950449,Lead-acid Battery,Electro-chemical,2000,1.2,Operational,Electric Bill Management with Renewables,Rutland,VT
454,Sandia National Solar Thermal Test Facility Molten Salt Loop,34.9635,-106.5098,Molten Salt Thermal Storage,Thermal Storage,1400,n/a,Operational,Onsite Renewable Generation Shifting,Albuquerque,NM
455,Kodiak ABB PowerStore Flywheels for Microgrid Stability and Harbor Crane Operation,57.78936089999999,-152.3972311,Flywheel,Electro-mechanical,2000,n/a,Operational,Electric Supply Reserve Capacity - Spinning,Kodiak,AK
456,Fort Collins Utilities Four Cities Smart Grid Development Project - Facilities Site ,40.522734,-105.09137700000001,Ice Thermal Storage,Thermal Storage,92,6,Operational,Electric Bill Management,Fort Collins,CO
457,Fort Collins Utilities Four Cities Smart Grid Development Project - CSU Site ,40.5729396,-105.08450249999999,Ice Thermal Storage,Thermal Storage,80,6,Operational,Electric Bill Management,Fort Collins,CO
458,NREL American Vanadium CellCube Test Site,39.7408399,-105.1685277,Flow Battery,Electro-chemical,20,4,Operational,Renewables Capacity Firming,Golden,CO
459,RDT&E for Advanced Energy Storage & Management Demonstration for USAF High Energy Demand Operations and Facilities ,20.748894,-156.43995800000002,Sodium based Battery,Electro-chemical,100,2,Operational,Renewables Energy Time Shift,Kihei,HI
460,HELCO BESS - West Hawaii Civic Center,19.673715100000003,-156.0038955,Lithium-ion Battery,Electro-chemical,100,2.5,Operational,Distribution upgrade due to solar,Kailua-Kona,HI
461,CERTS Test Bed ESS,39.831846899999995,-82.92502040000001,Lithium-ion Battery,Electro-chemical,100,,Operational,On-Site Power,Grove Port,OH
462,UCI Microgrid: Thermal Storage,33.6479102,-117.84680209999999,Chilled Water Thermal Storage,Thermal Storage,6590,8,Operational,Electric Bill Management,Irvine,CA
463,Exfob (Tricon) Ft. Devens Military Container,42.5370728,-71.6174929,Lithium-ion Battery,Electro-chemical,100,0.82,Operational,Load Following (Tertiary Balancing),Devens,MA
464,Scripps Ranch Community Center BESS,32.928678999999995,-117.07970900000001,Lithium-ion Battery,Electro-chemical,100,1,Operational,Electric Bill Management with Renewables,San Diego,CA
465,"Bi-directional EV Charging Stations, LA",34.0522342,-118.24368490000002,Lithium-ion Battery,Electro-chemical,15,1,Operational,Transportation Services,Los Angeles,CA
466,JLM Energy: Alabama Solar-tied,33.5080818,-86.7877958,Lithium-ion Battery,Electro-chemical,300,1,Operational,Renewables Capacity Firming,Various,AL
467,Zerobase Ocean Vodka PV Microgrid,20.818078200000002,-156.3869061,Lithium-ion Battery,Electro-chemical,100,6,Operational,Electric Supply Reserve Capacity - Non-Spinning,Kula,HI
468,TimberRock De-MAP Test,39.0839973,-77.1527578,Lithium-ion Battery,Electro-chemical,10,1,Operational,Grid-Connected Commercial (Reliability & Quality) ,Rockville,MD
469,GM E-Motor Charging Station & Microgrid,39.3794196,-76.45990429999999,Lithium-ion Battery,Electro-chemical,30,1,Operational,Frequency Regulation,White Marsh,MD
470,"SDGE Pala SES, GRC ES Program Unit 1",33.3930888,-117.06763980000001,Lithium-ion Battery,Electro-chemical,500,3,Operational,Grid-Connected Commercial (Reliability & Quality) ,Pala,CA
471,"SDGE Skills CES, GRC ES Program Unit 2",32.7742488,-117.14118149999999,Lithium-ion Battery,Electro-chemical,25,2,Operational,Grid-Connected Commercial (Reliability & Quality) ,San Diego,CA
472,"SDGE Clairmont CES, GRC ES Program Unit 3",32.825642699999996,-117.15588670000001,Lithium-ion Battery,Electro-chemical,25,2,Operational,Grid-Connected Commercial (Reliability & Quality) ,San Diego,CA
473,"SDGE Poway CES, GRC ES Program Unit 4",32.9628232,-117.0358646,Lithium-ion Battery,Electro-chemical,25,2,Operational,Grid-Connected Commercial (Reliability & Quality) ,Poway,CA
474,"SDGE Borrego SES, GRC ES Program Unit 5",33.2582082,-116.3243793,Lithium-ion Battery,Electro-chemical,1000,3,Operational,Grid-Connected Commercial (Reliability & Quality) ,Borrego Springs,CA
475,SDG&E Carmel Valley - Saft / ABB,32.9436607,-117.20881670000001,Lithium-ion Battery,Electro-chemical,1000,3,Operational,Grid-Connected Commercial (Reliability & Quality) ,San Diego,CA
476,Aquion AHI at Redwood Gate Ranch,38.44971339999999,-123.1151969,Sodium based Battery,Electro-chemical,15,4,Operational,On-Site Power,Jenner,CA
477,SMUD Galt Advanced Feeder Demo ESS,38.2546373,-121.29994850000001,Lithium-ion Battery,Electro-chemical,500,0.25,Operational,Onsite Renewable Generation Shifting,Galt,CA
478,KIUC Anahola Solar Array and Battery,22.145277800000002,-159.31555559999998,Lithium-ion Battery,Electro-chemical,6000,0.83,Operational,Onsite Renewable Generation Shifting,Anahola,HI
479,South Coast Air Quality Management District - CODA BESS 3,34.141845,-117.99976799999999,Lithium-ion Battery,Electro-chemical,510,2,Operational,Electric Bill Management with Renewables,Monrovia,CA
480,Geli EOS enabled CODA Core System (City of Benicia City Hall),38.0525089,-122.15342350000002,Lithium-ion Battery,Electro-chemical,20,2,Operational,Electric Bill Management with Renewables,Benicia,CA
481,SNOPUD MESA 1b Project,47.936062,-122.2476602,Lithium-ion Battery,Electro-chemical,1000,0.5,Operational,Electric Energy Time Shift,Everett,WA
482,South Coast Air Quality Management District - CODA BESS 1+2,34.141763,-118.00051699999999,Lithium-ion Battery,Electro-chemical,1000,0.5,Operational,Frequency Regulation,Monrovia,CA
483,CODA Energy - CORE 40/30,34.141763,-118.00051699999999,Lithium-ion Battery,Electro-chemical,30,1.33,Operational,Electric Bill Management,Monrovia,CA
484,Peralta College Green Charge Networks GreenStation,37.7924765,-122.25898190000001,Lithium-ion Battery,Electro-chemical,30,1,Operational,Electric Bill Management,Oakland,CA
485,Laney College Green Charge Networks GreenStation,37.7949249,-122.263102,Lithium-ion Battery,Electro-chemical,30,1,Operational,Electric Bill Management,Oakland,CA
486,Merritt College Green Charge Networks GreenStation,37.7906143,-122.1661517,Lithium-ion Battery,Electro-chemical,30,1,Operational,Electric Bill Management,Oakland,CA
487,Butte College Green Charge Networks GreenStation,39.715101399999995,-121.79533670000001,Lithium-ion Battery,Electro-chemical,30,1,Operational,Electric Bill Management,Chico,CA
488,Rose City Lights,40.744365,-73.957176,Lead-acid Battery,Electro-chemical,225,4,Operational,Electric Bill Management,Long Island City,NY
489,EnerDel Mobile Hybrid Power System,40.14969620000001,-88.2729819,Lithium-ion Battery,Electro-chemical,15,5.33,Operational,On-Site Power,Champaign,IL
490,ATK Launch Systems Microgrid EaglePicher BESS,41.659209999999995,-112.439866,Lead-acid Battery,Electro-chemical,300,4,Operational,Electric Energy Time Shift,Promontory ,UT
491,Erigo/US NORTHCOM BESS project,39.755542999999996,-105.2210997,Lead-acid Battery,Electro-chemical,300,1.28,Operational,Electric Energy Time Shift,Golden,CO
492,UET HQ BESS,47.8887886,-122.29135330000001,Flow Battery,Electro-chemical,600,3,Operational,On-Site Power,Mukilteo,WA
493,1 MW Avista UET Flow Battery,46.7273316,-117.14694920000001,Flow Battery,Electro-chemical,1000,3.2,Operational,Black Start,Pullman,WA
494,SCE Tehachapi Beacon Gen 4 FESS,35.1321877,-118.44897390000001,Flywheel,Electro-mechanical,100,0.25,Operational,Frequency Regulation,Tehachapi,CA
495,"Beacon Power 500 kW Flywheel (Tyngsboro, MA)",42.6608824,-71.4067111,Flywheel,Electro-mechanical,500,0.25,Operational,Frequency Regulation,Tyngsboro,MA
496,GridSolar Boothbay Pilot Project: BESS,43.8993343,-69.6203084,Lead-acid Battery,Electro-chemical,500,6,Operational,Electric Energy Time Shift,Boothbay,ME
497,Powertree Services San Francisco One,37.7749295,-122.4194155,Lithium-ion Battery,Electro-chemical,3264,1.8,Operational,Frequency Regulation,San Francisco,CA
498,DC Naval Yard Zero Energy Building,38.873610299999996,-76.995572,Lead-acid Battery,Electro-chemical,16,3,Operational,Renewables Capacity Firming,Washington,DC
499,EPCC Thermal Storage: Rio Grande,31.763972100000004,-106.4937799,Ice Thermal Storage,Thermal Storage,180,8,Operational,Electric Bill Management,El Paso,TX
500,EPCC Thermal Storage: Transmountain,31.885588300000002,-106.4404367,Ice Thermal Storage,Thermal Storage,225,8,Operational,Electric Bill Management,El Paso,TX
501,SEPTA Wayside Energy Storage System - Griscom Ultracapacitors,40.01706420000001,-75.0846955,Electro-chemical Capacitor,Electro-chemical,70,0.7,Operational,Voltage Support,Philadelphia,PA
502,Dangling Rope Marina Hybrid Power System,37.128586999999996,-111.084049,Lead-acid Battery,Electro-chemical,250,9.6,Operational,Renewables Capacity Firming,Lake Powell,UT
503,Clean Energy Storage: Steel Project,47.6062095,-122.33207079999998,Lithium-ion Battery,Electro-chemical,5,4,Operational,Onsite Renewable Generation Shifting,Seattle,WA
504,Clean Energy Storage: Devinenini,47.6062095,-122.33207079999998,Lithium-ion Battery,Electro-chemical,5,4,Operational,Onsite Renewable Generation Shifting,Seattle,WA
505,Clean Energy Storage: Centralia College,46.71533839999999,-122.96075400000001,Lithium-ion Battery,Electro-chemical,5,8,Operational,Electric Bill Management with Renewables,Centralia,WA
506,Clean Energy Storage: Nagasawa,47.9789848,-122.2020794,Lithium-ion Battery,Electro-chemical,5,5,Operational,Onsite Renewable Generation Shifting,Everett,WA
507,Clean Energy Storage: Sun Buzz,47.6739881,-122.12151200000001,Lithium-ion Battery,Electro-chemical,5,5,Operational,Electric Bill Management,Redmond,WA
508,SCE LESTA: 2 MW A123 Test,33.7513419,-117.99399209999999,Lithium-ion Battery,Electro-chemical,2000,0.25,Operational,Grid-Connected Commercial (Reliability & Quality) ,Westminster,CA
509,MID Primus Power Wind Energy Storage Demonstration - Renewables Firming,37.6390972,-120.99687820000001,Flow Battery,Electro-chemical,250,4,Operational,Renewables Energy Time Shift,Modesto,CA
510,Bysolar ESS for PJM Frequency Regulation,40.6955044,-74.2287333,Lead-acid Battery,Electro-chemical,500,1,Operational,Frequency Regulation,Hillside,NJ
511,Hawi Wind Farm BESS,19.542915100000002,-155.66585680000003,Lithium-ion Battery,Electro-chemical,1000,15,Operational,Renewables Capacity Firming,Hawaii,HI
512,Energy Storage Holdings Altair ALTI-ESS,40.0583238,-74.40566120000001,Lithium-ion Battery,Electro-chemical,1800,0.17,Operational,Frequency Regulation,New Jersey,NJ
514,Invenergy Grand Ridge Wind Project BESS,41.3308666,-88.7081293,Lithium-ion Battery,Electro-chemical,1500,0.25,Operational,Frequency Regulation,Marseilles,IL
515,Mitsubishi UPS at CoreSite Santa Clara Data Center,37.375202,-121.97180700000001,Electro-chemical,Electro-chemical,1500,n/a,Operational,Electric Supply Reserve Capacity - Spinning,Santa Clara,CA
516,EasyStreet Data Center VYCON Flywheels,45.487062,-122.8037102,Flywheel,Electro-mechanical,800,n/a,Operational,Resiliency,Beaverton,OR
517,Austin Energy Control Center VYCON Flywheels,30.267153000000004,-97.7430608,Flywheel,Electro-mechanical,4800,n/a,Operational,Resiliency,Austin,TX
518,Texas Scottish Rite Hospital for Children VYCON Flywheels,32.802143300000004,-96.8141251,Flywheel,Electro-mechanical,600,n/a,Operational,Electric Supply Reserve Capacity - Spinning,Dallas,TX
519,Banner Good Samaritan Medical Center VYCON Flywheels,33.4645012,-112.057851,Flywheel,Electro-mechanical,600,n/a,Operational,Electric Supply Reserve Capacity - Spinning,Phoenix,AZ
520,Follett VYCON Flywheel,41.810883700000005,-88.21665279999999,Flywheel,Electro-mechanical,300,n/a,Operational,Electric Supply Reserve Capacity - Spinning,Aurora,IL
521,EMC Durham Cloud Data Center VYCON Flywheels,35.99403289999999,-78.898619,Flywheel,Electro-mechanical,4000,n/a,Operational,Electric Supply Reserve Capacity - Spinning,Durham,NC
522,JV Industrial Data Center VYCON Flywheel,29.6657838,-95.0193728,Flywheel,Electro-mechanical,215,n/a,Operational,Electric Supply Reserve Capacity - Spinning,La Porte,TX
523,Delta Dental Data Center VYCON Flywheels,42.7009169,-84.429746,Flywheel,Electro-mechanical,860,n/a,Operational,Electric Supply Reserve Capacity - Spinning,Okemos,MI
524,Beth Israel Deaconess Medical Center VYCON Flywheels,42.339726,-71.104888,Flywheel,Electro-mechanical,430,n/a,Operational,Electric Supply Reserve Capacity - Spinning,Boston,MA
525,Alabama Public Television VYCON Flywheel,31.492108399999996,-86.3649582,Flywheel,Electro-mechanical,215,n/a,Operational,Electric Supply Reserve Capacity - Spinning,Dozier,AL
526,Virtua Health Data Center VYCON Flywheel,39.838169799999996,-74.9648887,Flywheel,Electro-mechanical,140,n/a,Operational,Electric Supply Reserve Capacity - Spinning,Gibbsboro,NJ
527,LIRR Malverne WESS: Ioxus,40.6754071,-73.6692196,Electro-chemical Capacitor,Electro-chemical,1000,0.2,Operational,Transportation Services,Malverne,NY
528,TDX St Paul Island Wind/Diesel/Beacon Flywheel Power Plant Demonstration,57.1224981,-170.2799461,Flywheel,Electro-mechanical,160,0.8,Operational,Electric Supply Reserve Capacity - Spinning,St. Paul Island,AK
529,Stafford Hill Solar Farm & Microgrid: Lithium Ion,43.619415999999994,-72.950449,Lithium-ion Battery,Electro-chemical,2000,1,Operational,Electric Bill Management with Renewables,Rutland,VT
530,World Journal Stem PowerStore System,37.598684999999996,-122.383478,Lithium-ion Battery,Electro-chemical,36,n/a,Operational,Electric Bill Management,Millbrae,CA
531,ShoEi Foods Stem PowerStore System,38.994791,-121.57733200000001,Lithium-ion Battery,Electro-chemical,72,1,Operational,Electric Bill Management with Renewables,Olivehurst,CA
532,Cox Enterprises Stem PowerStore System,34.0596323,-117.47263819999999,Lithium-ion Battery,Electro-chemical,18,1,Operational,Electric Bill Management,Fontana,CA
533,Flathead Electric ViZn Z20,48.2359399,-114.2762116,Flow Battery,Electro-chemical,80,2,Operational,Electric Energy Time Shift,Kalispell,MT
534,Sarasota County School District,27.3364347,-82.5306527,Ice Thermal Storage,Thermal Storage,20000,8,Operational,Electric Bill Management,Sarasota,FL
535,Jake Energy Storage Center: RES Americas,41.4877384,-88.0997601,Lithium-ion Battery,Electro-chemical,19800,0.4,Operational,Frequency Regulation,Joliet,IL
536,Elwood Energy Storage Center: RES Americas,41.8978524,-88.22306259999999,Lithium-ion Battery,Electro-chemical,19800,0.4,Operational,Frequency Regulation,West Chicago,IL
537,GridSolar Boothbay Pilot Project: Thermal Storage (Peak Shaving),43.8762865,-69.6337364,Ice Thermal Storage,Thermal Storage,221,8,Operational,Electric Bill Management,Boothbay,ME
538,GridSolar Boothbay Pilot Project: Thermal Storage (Demand Response),43.8762865,-69.6337364,Ice Thermal Storage,Thermal Storage,29,3,Operational,Electric Bill Management,Boothbay,ME
539,S&C CES: Chicago/PJM Frequency Regulation,41.8781136,-87.62979820000001,Lithium-ion Battery,Electro-chemical,150,n/a,Operational,Frequency Regulation,Chicago,IL
540,Bosch Fort Bragg,35.139167,-78.999167,Lithium-ion Battery,Electro-chemical,100,1,Operational,Electric Bill Management with Renewables,Fort Bragg,NC
541,County of Santa Barbara Green Charge Networks GreenStation,34.42491939999999,-119.70343490000002,Lithium-ion Battery,Electro-chemical,30,1,Operational,Electric Bill Management,Santa Barbara,CA
542,Oak Park USD - Brookside Elementary School Green Charge Networks GreenStation,34.172629799999996,-118.75609170000001,Lithium-ion Battery,Electro-chemical,60,2,Operational,Electric Bill Management,Oak Park,CA
543,California Fresh Market Green Charge Networks GreenStation,34.6088708,-120.1343285,Lithium-ion Battery,Electro-chemical,30,1,Operational,Electric Bill Management,Solvang,CA
544,MVLA High School District - Los Altos HS,37.386655600000005,-122.1089449,Lithium-ion Battery,Electro-chemical,200,2,Operational,Demand Response,Los Altos,CA
545,Kaiser Permanente San Rafael Green Charge Networks GreenStation,38.003965,-122.55528799999999,Lithium-ion Battery,Electro-chemical,30,1,Operational,Electric Bill Management,San Rafael,CA
546,90 kW / 180 kWh Santa Cruz County Building - Green Charge Networks,36.9778559,-122.02263049999999,Lithium-ion Battery,Electro-chemical,90,2,Operational,Electric Bill Management,Santa Cruz,CA
547,Shore Hotel Green Charge Networks GreenStation,34.0126959,-118.4957845,Lithium-ion Battery,Electro-chemical,60,1,Operational,Electric Bill Management,Santa Monica,CA
548,49er Stadium Green Charge Networks GreenStation,37.4078571,-121.96331299999999,Lithium-ion Battery,Electro-chemical,30,1,Operational,Electric Bill Management,Santa Clara,CA
549,Green Charge Networks (43rd Street Site 1),40.762172799999995,-73.99934499999999,Lithium-ion Battery,Electro-chemical,27,3.5,Operational,Electric Bill Management,New York,NY
550,Green Charge Networks (43rd Street Site 2),40.762172799999995,-73.99934499999999,Lithium-ion Battery,Electro-chemical,27,3.5,Operational,Electric Bill Management,New York,NY
551,Green Charge Networks (43rd Street Site 3),40.762172799999995,-73.99934499999999,Lithium-ion Battery,Electro-chemical,27,3.5,Operational,Electric Bill Management,New York,NY
552,SCE Distributed Energy Storage Integration (DESI) Pilot 1,33.786590000000004,-117.8750976,Lithium-ion Battery,Electro-chemical,2400,1.62,Operational,Stationary Transmission/Distribution Upgrade Deferral,Orange,CA
553,Imperial Irrigation District BESS - GE,32.792,-115.56305139999999,Lithium-ion Battery,Electro-chemical,30000,0.67,Operational,Black Start,El Centro,CA
554,2 MW/ 4.4 MWh Puget Sound Energy - Glacier Battery Storage,48.890122600000005,-121.94570159999998,Lithium-ion Battery,Electro-chemical,2000,2.2,Operational,Resiliency,Glacier,WA
555,Ice Energy project at Verdugo Recreation,34.18083920000001,-118.30896609999998,Ice Thermal Storage,Thermal Storage,16,12,Operational,Electric Bill Management,Burbank,CA
556,Ice Energy project at Water Reclamation Plant,34.182281700000004,-118.3190352,Ice Thermal Storage,Thermal Storage,27,18,Operational,Electric Bill Management,Burbank,CA
557,Ice Energy project at Buena Vista Library,34.1639544,-118.3302408,Ice Thermal Storage,Thermal Storage,32,24,Operational,Electric Bill Management,Burbank,CA
558,Ice Energy project a Fire Station #16,34.200653100000004,-118.31257,Ice Thermal Storage,Thermal Storage,16,12,Operational,Electric Bill Management,Burbank,CA
559,Ice Energy project at City of Burbank Fire Training,34.187481,-118.34511429999999,Ice Thermal Storage,Thermal Storage,28,18,Operational,Electric Bill Management,Burbank,CA
560,Ice Energy project at Central Library,34.183224100000004,-118.30622759999999,Ice Thermal Storage,Thermal Storage,28,24,Operational,Electric Bill Management,Burbank,CA
561,Ice Energy project at Field Service (PW Yard),34.1751567,-118.3125606,Ice Thermal Storage,Thermal Storage,16,12,Operational,Electric Bill Management,Burbank,CA
562,Ice Energy project at Colony Theater,34.185223,-118.312228,Ice Thermal Storage,Thermal Storage,32,24,Operational,Electric Bill Management,Burbank,CA
563,Ice Energy project at Qwest,34.199847999999996,-118.343747,Ice Thermal Storage,Thermal Storage,12,6,Operational,Electric Bill Management,Burbank,CA
564,Ice Energy project at IKEA #1,34.185571,-118.31374199999999,Ice Thermal Storage,Thermal Storage,18,6,Operational,Electric Bill Management,Burbank,CA
565,Ice Energy project at IKEA #2,34.185571,-118.31374199999999,Ice Thermal Storage,Thermal Storage,18,6,Operational,Electric Bill Management,Burbank,CA
566,"Ice Energy project at Burbank Mall, Town Center",34.183403600000005,-118.31212350000001,Ice Thermal Storage,Thermal Storage,16,6,Operational,Electric Bill Management,Burbank,CA
567,Ice Energy project at Bob Hope Airport #1,34.195511100000004,-118.35316259999999,Ice Thermal Storage,Thermal Storage,15,6,Operational,Electric Bill Management,Burbank,CA
568,Ice Energy project at Bob Hope Airport #2,34.195511100000004,-118.35316259999999,Ice Thermal Storage,Thermal Storage,15,6,Operational,Electric Bill Management,Burbank,CA
569,Ice Energy project at Bob Hope Airport #3,34.195511100000004,-118.35316259999999,Ice Thermal Storage,Thermal Storage,15,6,Operational,Electric Bill Management,Burbank,CA
570,Ice Energy project at Disney Studios #1,34.1562013,-118.3252152,Ice Thermal Storage,Thermal Storage,15,6,Operational,Electric Bill Management,Burbank,CA
571,Ice Energy project at Disney Studios #2,34.1562013,-118.3252152,Ice Thermal Storage,Thermal Storage,18,6,Operational,Electric Bill Management,Burbank,CA
572,Ice Energy project at Warner Bros. Studios #1,34.149829600000004,-118.3405987,Ice Thermal Storage,Thermal Storage,10,6,Operational,Electric Bill Management,Burbank,CA
573,Ice Energy project at Warner Bros. Studios #2,34.14996970000001,-118.3411767,Ice Thermal Storage,Thermal Storage,6,6,Operational,Electric Bill Management,Burbank,CA
574,Ice Energy project at Warner Bros. Studios #3,34.149945100000004,-118.3411985,Ice Thermal Storage,Thermal Storage,9,6,Operational,Electric Bill Management,Burbank,CA
575,Ice Energy project at M. David Paul & Associates,34.194961,-118.3453275,Ice Thermal Storage,Thermal Storage,13,6,Operational,Electric Bill Management,Burbank,CA
576,Beech Ridge Wind Storage 31.5 MW,37.963173299999994,-80.6895314,Electro-chemical,Electro-chemical,31500,n/a,Operational,Frequency Regulation,Rupert,WV
577,Grand Ridge Energy Storage 31.5 MW,41.3308666,-88.7081293,Lithium-ion Battery,Electro-chemical,31500,0.38,Operational,Frequency Regulation,Marseilles,IL
578,UCSD Sunverge 10 kW,32.8807318,-117.24019990000001,Lithium-ion Battery,Electro-chemical,10,1,Operational,Microgrid Capability,La Jolla,CA
579,UCSD Thermal Storage Tank,32.8807318,-117.24019990000001,Chilled Water Thermal Storage,Thermal Storage,4000,4,Operational,Microgrid Capability,La Jolla,CA
580,UCSD Amber Kinetics 40 kWh,32.8807318,-117.24019990000001,Flywheel,Electro-mechanical,25,0.63,Operational,Renewables Energy Time Shift,La Jolla,CA
